연번,도로명주소,지번주소,위도,경도,건물명,구 명칭,전화번호,유형,개방시간,소재지 용도,화장실 현황,장애인화장실 현황,편의시설 (기타설비),안내표지,소재지,비고
1,서울특별시 강북구 오패산로52라길 149,서울특별시 강북구 미아동 산 25-52,127.0347052,37.62058214,게이트볼장 앞 화장실,강북구, , , , , , , , , , 
2,서울특별시 강북구 오현로 145,서울특별시 강북구 번동 산 27-121,127.0355798,37.62480401,정보도서관 뒤 화장실,강북구, , , , , , , , , , 
3, ,서울특별시 강북구 번동 산 23-36,127.0351924,37.62907368,꽃샘길 화장실,강북구, , , , , , , , , , 
4,서울특별시 성동구 고산자로 202,서울특별시 성동구 행당동 319-36,127.0344055,37.55825571,무학빌딩(레노스블랑쉬),성동구, ,민간개방1,06:00-20:00,빌딩, , , , , , 
5,서울특별시 성동구 고산자로 164,서울특별시 성동구 행당동 349,127.0366672,37.55424285,행당한신아파트상가,성동구, ,민간개방1,07:00-23:00,빌딩, , , , , , 
6,서울특별시 성동구 행당로9길 9,서울특별시 성동구 행당동 347-1,127.0293244,37.55821337,행당2동 주민센터,성동구, ,공공개방,08:00-21:00,공공청사,"남1,여1",손건조기6, , , , 
7,서울특별시 성동구 행당로 87,서울특별시 성동구 행당동 347,127.0285204,37.55729704,행당대림리빙프라자,성동구, ,민간개방1,09:00-22:00,빌딩,여2,손건조기2, , , , 
8,서울특별시 성동구 행당로 75,서울특별시 성동구 행당동 347,127.027624,37.55660495,행당대림노변상가,성동구, ,민간개방1,상시,빌딩, , , , , , 
9,서울특별시 성동구 행당로 76,서울특별시 성동구 행당동 346-12,127.0276777,37.55642047,행당한진노변상가,성동구, ,민간개방1,상시,상가(시장), , , , , , 
10,서울특별시 성동구 행당로6길 24-9,서울특별시 성동구 행당동 346-2,127.0270702,37.55470107,대림공원,성동구, ,공중,상시(연중개방),공원, ,"비상벨2, 손건조기2", , , , 
11,서울특별시 성동구 금호로 173,서울특별시 성동구 금호동2가 1-4,127.0195894,37.556752,금호산,성동구, ,공중,상시(연중개방),공원,"남2,여1",비상벨2, , , , 
12,서울특별시 성동구 금호로 173,서울특별시 성동구 금호동2가 1,127.0195178,37.5564452,군부대앞금호정,성동구, ,공중,상시(연중개방),공원, , , , , , 
13,서울특별시 성동구 행당로 15,서울특별시 성동구 금호동1가 101,127.0216532,37.55487718,금호동1가 주민센터,성동구, ,공공개방,09:00-18:00,공공청사, , , , , , 
14,서울특별시 성동구 행당로 6,서울특별시 성동구 금호동1가 515,127.0207294,37.55447116,신세계오피스텔,성동구, ,민간개방1,09:00-22:00,빌딩, , , , , , 
15,서울특별시 성동구 난계로 20,서울특별시 성동구 금호동1가 1350-15,127.0248939,37.5540514,성동구립 금호도서관,성동구, ,공공개방,09:00-22:00,공공청사,"남2,여2",손건조기, , , , 
16,서울특별시 성동구 난계로 19,서울특별시 성동구 금호동1가 179-3,127.0243274,37.55406333,금호119안전센터,성동구, ,공공개방,상시,공공청사, , , , , , 
17,서울특별시 성동구 금호로 118,서울특별시 성동구 금호동1가 1822,127.0240205,37.55299871,성동구 보건분소,성동구, ,공공개방,09:00-18:00,공공청사, , , , , , 
18,서울특별시 성동구 무수막길 69,서울특별시 성동구 금호동2가 511,127.0199264,37.5527902,열린금호교육문화관,성동구, ,공공개방,09:00-18:00,공공청사, ,손건조기, , , , 
19,서울특별시 성동구 금호산길 42,서울특별시 성동구 금호동2가 500-9,127.0192221,37.5519823,서울중앙병원,성동구, ,공공개방,09:00-18:00,병원, ,손건조기2, , , , 
20,서울특별시 성동구 무수막길 1,서울특별시 성동구 금호동3가 209,127.0254687,37.54833969,"금호동2,3가 주민센터",성동구, ,공공개방,09:00-18:00,공공청사,남1(별도장애인실),손건조기2, , , , 
21,서울특별시 성동구 금호산2길 25,서울특별시 성동구 금호동3가 474-2,127.0224298,37.5489939,금남시장 뒤,성동구, ,공중,상시(연중개방),화장실, ,손건조기2, , , , 
22,서울특별시 성동구 장터길 42,서울특별시 성동구 금호동4가 1124,127.0204942,37.54814757,금호4가 얼음가게,성동구, ,공중,상시(연중개방),화장실, ,비상벨2, , , , 
23,서울특별시 성동구 독서당로46길 26,서울특별시 성동구 금호동4가 803,127.0223357,37.54717396,금호4가 주민센터,성동구, ,공공개방,09:00-18:00,공공청사, , , , , , 
24, ,서울특별시 성동구 금호동4가 산 28-1,127.0206115,37.54484853,달맞이봉,성동구, ,공중,상시(연중개방),공원, ,비상벨3, , , , 
25,서울특별시 성동구 독서당로40길 21,서울특별시 성동구 옥수동 산 2-1,127.0175061,37.54431575,미타사,성동구, ,민간개방1,상시,종교시설, , , , , , 
26,서울특별시 성동구 독서당로 398,서울특별시 성동구 응봉동 100,127.0322121,37.55079614,응봉대림1차노변상가,성동구, ,민간개방1,08:00-24:00,빌딩, , , , , , 
27, ,서울특별시 종로구 청운동 7-3,126.9662529,37.59108996,인왕산도시자연공원 청운지구(2)-청운공원,종로구,02-2148-2832,공중,상시, , , , , , , 
28,서울특별시 종로구 창의문로3길 21,서울특별시 종로구 청운동 7-2,126.966167,37.59119002,인왕산도시자연공원 청운지구(1층),종로구,02-2148-2832,공중,상시(연중개방),공원, ,"비상벨7, 손건조기2", , , , 
29,서울특별시 동작구 동작대로 31,서울특별시 동작구 사당동 1031-31,126.9813528,37.4794253,화민빌딩,동작구,02-820-9143,민간개방1,정시(09:00~20:00),빌딩,남2,손건조기2, , , , 
30,서울특별시 종로구 청계천로 383,서울특별시 종로구 숭인동 234-85,127.019798,37.57188017,숭인빌딩 개방화장실,종로구, ,민간개방, ,상가, , , , , , 
31,서울특별시 종로구 사직로 130,서울특별시 종로구 적선동 80,126.9733535,37.57562822,경복궁역,종로구,02-6110-3271,공공개방,정시 (영업시작~종료),지하철,공용1,기저귀교환대1유아용보호의자1비상벨7손건조기3, , , , 
32,서울특별시 종로구 경희궁1길 15,서울특별시 종로구 신문로2가 1-122,126.9706714,37.57137447,사직동 주민센터,종로구,02-2148-5032,공공개방,정시(평일09:00~18:00),공공청사, , , , , , 
33,서울특별시 마포구 환일길 13,서울특별시 마포구 아현동 711-2,126.9601746,37.55669896,삭제 서부수도사업소,마포구,02-3153-9234,공공개방,정시,공공청사, ,손건조기4, , , , 
34,서울특별시 종로구 통일로8길 16,서울특별시 종로구 송월동 148,126.9655614,37.56938263,서대문교회,종로구, , , , , , , , , , 
35,서울특별시 종로구 사직로 65,서울특별시 종로구 사직동 262-85,126.9666266,37.57446078,주식회사 대양씨앤씨 사직주유소(1층),종로구,02-2148-2475,공중,상시(연중개방),주유소및충전소, ,손건조기2, , , , 
153,서울특별시 강남구 영동대로 416,서울특별시 강남구 대치동 1002,127.0653142,37.50658057,코스모타워(KT&G),강남구,02-3423-5963,민간개방1,상시,빌딩,여1, , , , , 
154,서울특별시 강남구 영동대로 429,서울특별시 강남구 대치동 946-13,127.0631369,37.50763095,세아빌딩,강남구,02-3423-5963,민간개방1,정시,빌딩, , , , , , 
155,서울특별시 강남구 역삼로 542,서울특별시 강남구 대치동 966-5,127.0623336,37.50397723,신사에스엔지,강남구,02-3423-5963,민간개방,정시,상가(시장), , , , , , 
156,서울특별시 강남구 개포로109길 62,서울특별시 강남구 개포동 13-1,127.078775,37.49606899,대진근린공원,강남구,02-3423-5963,공중,상시,공원,"남1,여1", , , , , 
157,서울특별시 강남구 개포로124길 24,서울특별시 강남구 일원동 621,127.0829892,37.49319543,대청근린공원,강남구,02-3423-5963,공중,상시,공원,"남1,여1", , , , , 
158,서울특별시 강남구 개포로 603,서울특별시 강남구 개포동 12-7,127.0731573,37.49197476,예지어린이공원,강남구,02-3423-5963,공중,상시,공원, , , , , , 
159,서울특별시 강남구 일원로8길 44,서울특별시 강남구 일원동 690,127.0775394,37.48977561,늘푸른근린공원, ,02-3423-5964, , , , , , , , , 
160,서울특별시 강남구 선릉로 35,서울특별시 강남구 개포동 660-1,127.0599822,37.48227258,개포1동주민센터,강남구,02-3423-5963,공공개방,정시,공공청사,남1, , , , , 
161,서울특별시 강남구 광평로56길 11,서울특별시 강남구 수서동 723-1,127.1054066,37.48753847,수서개나리어린이공원,강남구,02-3423-5963,공중,상시,공원,"남1,여1", , , , , 
162,서울특별시 강남구 광평로60길 22,서울특별시 강남구 수서동 721,127.1069374,37.48698098,강남세움센터,강남구,02-3423-5963,공공개방,정시,공용시설,"남4,여8", , , , , 
163,서울특별시 강남구 밤고개로 286,서울특별시 강남구 율현동 278-1,127.1069026,37.46904982,세곡문화센터,강남구,02-3423-5963,공공개방,정시,공공청사,"남4,여4", , , , , 
164,서울특별시 강동구 고덕로 456,서울특별시 강동구 상일동 산 73,127.1757447,37.55750043,강일역, , , , , , , , , , , 
165,서울특별시 강북구 삼양로 265,서울특별시 강북구 미아동 791-963,127.0179558,37.62705481,광명빌딩 개방화장실, , , , , , , , , , , 
166,서울특별시 강북구 도봉로 302,서울특별시 강북구 번동 449-6,127.0237416,37.63535989,한국마사회개방화장실, ,02-901-6773, , , , , , , , , 
167,서울특별시 서초구 방배로 47,서울특별시 서초구 방배동 1032,126.9989688,37.47895951,누리시아웨딩홀_폐쇄,서초구, ,민간개방1,정시,빌딩, , , , , , 
168,서울특별시 서초구 반포대로 333,서울특별시 서초구 반포동 1-6,126.998663,37.50907356,원베일리 공공보행통로 공중화장실, ,02-2155-6736,공중화장실,상시,공중화장실,남 소변 2 / 대변 1 여 대변 3,남 1 / 여 1,손 건조기, , , 
169,서울특별시 강동구 풍성로63길 84,서울특별시 강동구 둔촌동 444,127.140334,37.53173854,신성통상개방화장실, , , , , , , , , , , 
170,서울특별시 강동구 고덕로 295,서울특별시 강동구 고덕동 296,127.1580197,37.55611667,서울고덕평생학습관,강동구,02%293425-5864,공중,상시,공원, , , , , , 
171,서울특별시 강동구 천중로 215,서울특별시 강동구 길동 344-4,127.1443373,37.54097161,길동 119안전센터,강동구,02%29487-6119,공공개방,상시,공공청사, , , , , , 
172,서울특별시 강동구 선사로 70,서울특별시 강동구 천호동 329,127.1221418,37.54482575,천호유수지공영주차장, , , , , , , , , , , 
173,서울특별시 강동구 천호대로 1097,서울특별시 강동구 성내동 160-52,127.1323856,37.53581298,강동역, , , , , , , , , , , 
174,서울특별시 강동구 성내로 25,서울특별시 강동구 성내동 540-1,127.124411,37.52986949,강동구청 제2청사화장실,강동구,02%29477-0162,공공개방,상시,공공청사,"남1,여1",손건조기, , , , 
175,서울특별시 강동구 고덕로24길 49,서울특별시 강동구 암사동 474-6,127.1357291,37.55234969,암사1동주민자치회관, , , , , , , , , , , 
176,서울특별시 강동구 구천면로 633,서울특별시 강동구 상일동 513-2,127.1681786,37.55049391,상일1동주민센터, , , , , , , , , , , 
177,서울특별시 강동구 양재대로 1634,서울특별시 강동구 명일동 312-104,127.144333,37.55122669,명일1동주민센터(임시),강동구, , , , , , , , , , 
178,서울특별시 강동구 양재대로156길 123,서울특별시 강동구 고덕동 691-6,127.1515336,37.55722414,고덕1동주민센터,강동구, , , , , , , , , , 
179,서울특별시 강동구 올림픽로80길 60,서울특별시 강동구 천호동 422-12,127.1282892,37.54243864,천호2동주민센터,강동구, , , , , , , , , , 
180,서울특별시 강동구 상일로6길 51,서울특별시 강동구 상일동 502-2,127.1758909,37.54987987,상일2동주민센터,강동구, , , , , , , , , , 
181,서울특별시 강동구 구천면로 297-5,서울특별시 강동구 천호동 293-8,127.1338427,37.54684559,천호보건지소 화장실, , , , , , , , , , , 
182,서울특별시 강동구 아리수로82길 42,서울특별시 강동구 고덕동 215,127.1677166,37.5609754,고덕초교 건너편,강동구,02%293425-5864,공중,상시,공원, , , , , , 
183, ,서울특별시 강동구 둔촌동 산 119,127.1516816,37.5339408,일자산공원(도시농업),강동구,02%293425-5864,공중,상시,공원, ,손건조기, , , , 
184, ,서울특별시 중랑구 중화동 311-65,127.0770697,37.60203481,중화2동 주민센터 개방화장실, , ,개방화장실,(평일)09:00~18:00, , , , , , , 
185,서울특별시 종로구 대학로 120,서울특별시 종로구 동숭동 1-27,127.0023063,37.58186629,KFC 대학로점,종로구, ,민간개방, ,음식점, , , , , , 
186,서울특별시 종로구 대학로 101,서울특별시 종로구 연건동 28-21,126.9975763,37.57872985,서울대학교병원 외래암센터 공공개방화장실,종로구, ,공공개방, ,병원, , , , , , 
187,서울특별시 종로구 율곡로 58,서울특별시 종로구 경운동 96-18,126.9858327,37.57635156,재동주유소,종로구,020-732-3968,민간개방,(평일) 06:00~23:00 (주말) 06:00~23:00,주유소, , , , , , 
188,서울특별시 종로구 자하문로15길 18,서울특별시 종로구 통인동 10-3,126.9699323,37.5807623,통인시장 고객지원센터화장실,종로구,02-722-0911,공중,정시(08:00-22:00),상가(시장), , , , , , 
189,서울특별시 종로구 종로32길 19-1,서울특별시 종로구 종로5가 395-8,127.0012874,37.57013359,광장전통시장 고객지원센터, , ,공중, , , , , , , , 
36,서울특별시 용산구 이태원로 224-19,서울특별시 용산구 한남동 685-46,127.000284,37.5348186,한남동 공영주차장,용산구, ,공공개방, , , , , , , , 
37,서울특별시 용산구 이촌로 164,서울특별시 용산구 이촌동 302-79,126.9652958,37.52136817,한국석유공업(주)한석주유소,용산구, ,민간개방, , , , , , , , 
38,서울특별시 용산구 이촌로 224,서울특별시 용산구 이촌동 300-27,126.9718659,37.52025526,한강쇼핑센터,용산구, ,민간개방, , , , , , , , 
39,서울특별시 용산구 청파로49길 6,서울특별시 용산구 청파동2가 91-1,126.9698109,37.54558925,청파동 주민센터,용산구, ,공공개방, , , , , , , , 
40,서울특별시 용산구 청파로83길 26,서울특별시 용산구 서계동 33-49,126.9677099,37.55200529,청파노인복지관,용산구, ,공공개방, , , , , , , , 
41,서울특별시 용산구 한강대로39길 40,서울특별시 용산구 한강로2가 2-341,126.9686841,37.5316893,철길담장옆 공중화장실,용산구, ,공공개방, , , , , , , , 
42,서울특별시 용산구 원효로 178,서울특별시 용산구 원효로2가 70-2,126.9626857,37.53560163,(주)영원에너지 풍기주유소,용산구, ,민간개방, , , , , , , , 
43,서울특별시 용산구 원효로 147,서울특별시 용산구 원효로3가 46-6,126.9591906,37.53468263,신태성주유소,용산구, ,민간개방, , , , , , , , 
44,서울특별시 용산구 한남대로 82,서울특별시 용산구 한남동 707-14,127.0061058,37.53603513,주식회사 중앙 에너비스 에너비스,용산구, ,민간개방, , , , , , , , 
45,서울특별시 용산구 녹사평대로11길 24,서울특별시 용산구 서빙고동 37,126.9933468,37.52221066,(주)남경주유소,용산구, ,민간개방,영업시간내, , , , , , , 
46,서울특별시 용산구 청파로 74,서울특별시 용산구 한강로3가 16-9,126.9604089,37.53290127,전자랜드,용산구, ,민간개방, , , , , , , , 
47,서울특별시 용산구 이태원로15길 34,서울특별시 용산구 이태원동 190-11,126.9899677,37.53565782,이태원어린이공원,용산구, ,공중,상시, , , , , , , 
48,서울특별시 용산구 녹사평대로40다길 37,서울특별시 용산구 이태원동 191-3,126.9897508,37.53593405,이태원동부군당역사공원,용산구, ,공공개방,09~18시, , , , , , , 
49,서울특별시 용산구 이태원로 164,서울특별시 용산구 이태원동 72-34,126.9921588,37.53417609,이태원3 공중화장실,용산구, , , , , , , , , , 
50,서울특별시 용산구 청파로 77,서울특별시 용산구 원효로3가 51-30,126.9598654,37.53371001,원효전자상가,용산구, ,민간 개방,09~20시, , , , , , , 
51,서울특별시 용산구 백범로 350,서울특별시 용산구 문배동 19-2,126.9676806,37.53721626,원효로1동 주민센터,용산구, ,공공개방,09~18시, , , , , , , 
52,서울특별시 용산구 한강대로 343-1,서울특별시 용산구 갈월동 71-3,126.971461,37.54896713,용산푸드뱅크마켓,용산구, ,공공개방,09~18시, , , , , , , 
53,서울특별시 용산구 이촌로71길 24,서울특별시 용산구 이촌동 301-82,126.9733985,37.52137359,용산청소년센터,용산구, ,공공개방,09~18시, , , , , , , 
54,서울특별시 용산구 효창원로8길 28,서울특별시 용산구 원효로4가 87-4,126.9522046,37.5334629,용산문화원,용산구, ,공공개방,09~18시, , , , , , , 
55,서울특별시 용산구 청파로49길 34,서울특별시 용산구 청파동2가 35-20,126.9685194,37.54551866,용산구자원봉사센터,용산구, ,공공개방,09~18시, , , , , , , 
56,서울특별시 용산구 효창원로69가길 2,서울특별시 용산구 효창동 5-32,126.9613956,37.54166916,용산구시설관리공단,용산구, ,공공개방,09~18시, , , , , , , 
57,서울특별시 용산구 이태원로 274,서울특별시 용산구 한남동 728-10,127.0021017,37.53902884,용산공예관,용산구, ,공공개방,10시~19시, , , , , , , 
58,서울특별시 용산구 한남대로 204,서울특별시 용산구 한남동 726-370,127.0029025,37.54606275,에이치디현대오일뱅크㈜ 직영한남동주유소,용산구, ,민간개방,상시, , , , , , , 
59,서울특별시 용산구 한강대로 322,서울특별시 용산구 갈월동 11-34,126.9722289,37.54703266,에이치디현대오일뱅크㈜ 직영갈월동주유소,용산구, ,민간개방,상시, , , , , , , 
60,서울특별시 용산구 원효로 9,서울특별시 용산구 청암동 168-38,126.9457226,37.53471933,에이치디현대오일뱅크㈜  직영강변현대주유소,용산구, ,민간개방,상시, , , , , , , 
61,서울특별시 용산구 소월로 66,서울특별시 용산구 후암동 448-103,126.9777206,37.55445096,에이치디현대오일뱅크(주) 직영소월길주유소,용산구, ,민간개방, , , , , , , , 
62,서울특별시 용산구 원효로56길 38,서울특별시 용산구 신계동 28-33,126.9632842,37.53401403,신계동 공중화장실,용산구, , ,상시, , , , , , , 
63,서울특별시 용산구 이촌로2길 17,서울특별시 용산구 이촌동 173-1,126.9535749,37.53065253,성촌공원(녹지),용산구, ,공공개방, , , , , , , , 
64,서울특별시 용산구 한강대로104길 6,서울특별시 용산구 동자동 14-125,126.972355,37.55021386,선익상사(주)동자동주유소,용산구, , , , ,"남성,여성", , , , , 
65,서울특별시 용산구 새창로 213,서울특별시 용산구 한강로2가 2-196,126.9672797,37.5305253,석우빌딩,용산구,02-792-1257,민간개방,상시, ,"남성, 여성",없음, , , , 
66,서울특별시 용산구 청파로 367,서울특별시 용산구 서계동 47-15,126.9689861,37.5523496,서계주유소,용산구,02-706-6485,민간개방,상시, ,"남성, 여성",없음, , , , 
67,서울특별시 용산구 한강대로39길 21,서울특별시 용산구 한강로2가 2-194,126.9675625,37.53084937,삼영연립 공중화장실,용산구,02-2199-7325,민간개방,상시, ,"남성, 여성",없음, , , , 
68,서울특별시 용산구 백범로99가길 60,서울특별시 용산구 한강로2가 2-284,126.9703468,37.53394282,삼각지차고 옆 공중화장실,용산구,02-2199-7325,공공개방,상시, ,"남성, 여성",없음, , , , 
69,서울특별시 용산구 이촌로 343-20,서울특별시 용산구 용산동6가 69-11,126.983296,37.51792399,동작대교 하부 탁구장,용산구,02-2199-7612,간이화장실,08:00~16:00, ,"남성, 여성", , , , , 
70,서울특별시 용산구 청파로 100,서울특별시 용산구 한강로3가 2-8,126.9623699,37.53288093,나진상가,용산구,02-704-3019,민간 개방,09:00~19:00, ,"남성용, 여성용",없음, , , , 
71,서울특별시 용산구 백범로 329,서울특별시 용산구 원효로1가 25,126.9652858,37.53882336,꿈나무 종합타운,용산구,02-707-0704,공공개방,08:00~22:00, ,"남성, 여성, 장애인, 어린이용","남성, 여성 장애인","귀저기 교환대(남성, 여성 화장실)", , , 
72,서울특별시 용산구 백범로43길 8,서울특별시 용산구 효창동 5-267,126.9578253,37.54113229,광성빌딩,용산구, ,민간개방,연중무휴, , , , , , , 
73,서울특별시 용산구 한강대로21나길 17,서울특별시 용산구 한강로3가 40-999,126.9645254,37.5298081,HDC아이파크몰,용산구,02-2012-0101,민간개방,10:30~18:00, ,"남성, 여성, 장애인",장애인 대변기 1, , , , 
74,서울특별시 종로구 비봉길 64,서울특별시 종로구 구기동 139,126.9554889,37.61415605,이북오도청 1층,종로구,02-2287-2551,공공개방,"평일 : 09:00~18:00, 토,일요일미개방",공공청사, , , , , , 
75,서울특별시 광진구 강변북로 2210,서울특별시 광진구 자양동 97-5,127.0665507,37.53025592,한강공원화장실뚝섬13,광진구,02-3780-0780,공중,상시,공원, , ,한강사업본부 환경수질과, , , 
76, ,서울특별시 광진구 자양동  112,127.0663647,37.52987216,한강공원화장실뚝섬11,광진구,02-3780-0780,공중,상시,공원, , ,한강사업본부 환경수질과, , , 
77, ,서울특별시 광진구 자양동  435,127.0727524,37.52885213,한강공원화장실뚝섬8,광진구,02-3780-0780,공중,상시,공원, , ,한강사업본부 환경수질과, , , 
78, ,서울특별시 광진구 자양동  704-6,127.0845374,37.5272537,한강공원화장실뚝섬2,광진구,02-3780-0780,공중,상시,공원, , ,한강사업본부 환경과, , , 
79,서울특별시 중구 을지로 227,서울특별시 중구 을지로5가 40-3,127.0043,37.56686501,훈련원주차장 지하1층 화장실,중구, , , , , , , , , , 
80, ,서울특별시 노원구 공릉동  657-8,127.0783375,37.618268,공릉가로공원 공중화장실,노원구, ,공중화장실,상시,공원,남녀분리,없음,기저귀교환대 없음, , , 
81,서울특별시 종로구 청계천로 295,서울특별시 종로구 창신동 436-79,127.0106768,37.57006886,동대문신발상사A동 357호,종로구, , , , , , , , , , 
82, ,서울특별시 강남구 청담동  342-2,127.0514016,37.52884056,한강공원화장실잠원1,강남구,02-3780-0780,공중,상시,공원, , ,한강사업본부 환경과, , , 
83, ,서울특별시 강동구 암사동  148-9,127.1286784,37.56211191,한강공원화장실광나루2,강동구,02-3780-0780,공중,상시,공원, , ,한강사업본부 환경과, , , 
84, ,서울특별시 서초구 원지동  산 78-12,127.0423212,37.45526372,시민공원 화장실,서초구, , , ,공원,"남자화장실 : 소변기3, 대변기1 여자화장실 : 대변기3", , , , , 
85,서울특별시 종로구 종로 297-1,서울특별시 종로구 창신동 559-1,127.0108133,37.57171889,동대문역(1호선),종로구, , , , , , , , , , 
86,서울특별시 중구 마장로 22,서울특별시 중구 신당동 251-7,127.0122844,37.56753822,DDP패션몰 1층 화장실,중구, , ,20:00~ 익일 05:00, , , , , , , 
87,서울특별시 송파구 올림픽로 25,서울특별시 송파구 잠실동  10,127.0746981,37.51706039,공중화장실(P4주차장옆),송파구, , , , , , , , , , 
88,서울특별시 강동구 한강남자전거길 3646,서울특별시 강동구 천호동 483-8,127.1196682,37.54485612,한강공원화장실광나루7,강동구,02-3780-0780,공중,상시,공원, , ,한강사업본부 환경과, , , 
89,"서울특별시 강북구 수유로12길 63, 101동 (수유동, 삼성쉐르빌)",서울특별시 강북구 수유동 50-31,127.0218964,37.63219596,수유1동 공동육아나눔터,강북구, , , , , , , , , , 
90,"서울특별시 강북구 덕릉로30길 49, 101동 (미아동, 청운美家)",서울특별시 강북구 미아동 164-2,127.0258839,37.63237486,미아 공동육아방,강북구, , , , , , , , , , 
91,서울특별시 강북구 인수봉로66길 9,서울특별시 강북구 수유동 410-293,127.0126155,37.64047846,강북구 육아종합지원센터 화장실,강북구, , , , , , , , , , 
92,서울특별시 강북구 도봉로89길 13,서울특별시 강북구 수유동 192-59,127.0254715,37.63919464,강북구청 화장실(외부),강북구, , , , , , , , , , 
93,서울특별시 강북구 한천로139가길 10,서울특별시 강북구 수유동 190-11,127.0256745,37.6398016,강북구청 화장실(내부),강북구, , , , , , , , , , 
94, ,서울특별시 마포구 상암동  495-72,126.8739327,37.56894741,한강공원화장실난지11,마포구,02-3780-0780,공중,상시,공원, , ,한강사업본부 환경과, , , 
95,서울특별시 마포구 한강난지로 162,서울특별시 마포구 상암동 487-301,126.884769,37.56315692,한강공원화장실난지4,마포구,02-3780-0780,공중,상시,공원, , ,한강사업본부 환경과, , , 
96,서울특별시 마포구 마포나루길 407,서울특별시 마포구 망원동 205-5,126.8975266,37.55389717,한강공원화장실망원8,마포구,02-3780-0780,공중,상시,공원, , ,한강사업본부 환경과, , , 
97,서울특별시 서초구 잠원로 221-124,서울특별시 서초구 잠원동 121,127.0120758,37.52050033,한강공원화장실잠원7,서초구,02-3780-0780,공중,상시,공원, , ,한강사업본부 환경수질과, , , 
98,서울특별시 강북구 삼각산로 165,서울특별시 강북구 수유동 233,127.0217883,37.64243134,수유동성당 개방화장실,강북구, , , , , , , , , , 
99,서울특별시 강북구 도봉로 162,서울특별시 강북구 미아동 126-32,127.0277075,37.62325217,신일교회 개방화장실,강북구, , , , , , , , , , 
100,서울특별시 강북구 도봉로 145,서울특별시 강북구 미아동 317-7,127.0276871,37.6217722,강명빌딩 개방화장실,강북구, , , , , , , , , , 
101,서울특별시 강북구 한천로129길 6,서울특별시 강북구 번동 417-93,127.0297171,37.63771204,강북구 가족센터 화장실,강북구, , , , , , , , , , 
102, ,서울특별시 강북구 번동  612-3,127.044624,37.62849799,벌리교 공중화장실,강북구, , , , , , , , , , 
103, ,서울특별시 도봉구 창동  756-43,127.0544742,37.64858249,중랑천변4,도봉구, , , , ,"여자대변기 2 남자대변기 1, 소변기 1",무, , , , 
104, ,서울특별시 마포구 상암동  482-166,126.8798016,37.56480292,한강공원화장실난지6,마포구,02-3780-0780,공중,상시,공원, , ,한강사업본부 환경과, , , 
105,서울특별시 영등포구 여의동로 48,서울특별시 영등포구 여의도동 4-9,126.9218329,37.51882326,한강공원화장실여의도22,영등포구,02-3780-0780,공중,상시,공원, , ,한강사업본부 환경과, , , 
106,서울특별시 영등포구 여의동로 343,서울특별시 영등포구 여의도동 84-4,126.9315674,37.52874144,한강공원화장실여의도11,영등포구,02-3780-0780,공중,상시,공원, , ,한강사업본부 환경과, , , 
107,서울특별시 영등포구 여의동로 350,서울특별시 영등포구 여의도동 84-4,126.931673,37.52862477,한강공원화장실여의도10,영등포구,02-3780-0780,공중,상시,공원, , ,한강사업본부 환경과, , , 
108, ,서울특별시 영등포구 여의도동  85-6,126.9344795,37.5275386,한강공원화장실여의도7,영등포구,02-3780-0780,공중,상시,공원, , ,한강사업본부 환경과, , , 
109, ,서울특별시 영등포구 여의도동  85,126.9376755,37.52505937,한강공원화장실여의도5,영등포구,02-3780-0780,공중,상시,공원, , ,한강사업본부 환경과, , , 
110,서울특별시 용산구 이촌로72길 62,서울특별시 용산구 이촌동 302-17,126.9705964,37.51793366,한강공원화장실이촌11,용산구,02-3780-0780,공중(1층 외부 장애인화장실),상시,공원, , ,한강사업본부 환경과, , , 
111,서울특별시 서초구 한강남자전거길 2172,서울특별시 서초구 반포동 115-5,126.9943119,37.50873503,한강공원화장실반포4,서초구,02-3780-0780,공중,상시,공원, , ,한강사업본부 환경과, , , 
112,서울특별시 서초구 한강남자전거길 2262,서울특별시 서초구 잠원동 122-1,127.0023392,37.5130731,한강공원화장실반포2,서초구,02-3780-0780,공중,상시,공원, , ,한강사업본부 환경과, , , 
113,서울특별시 강남구 강남대로 708,서울특별시 강남구 압구정동 386-1,127.0159582,37.52431326,한강공원화장실잠원6,강남구,02-3780-0780,공중,상시,공원, , ,한강사업본부 환경과, , , 
114, ,서울특별시 영등포구 여의도동  84,126.9295678,37.53049169,한강공원화장실여의도13,영등포구,02-3780-0780,공중,상시,공원, , ,한강사업본부 환경과, , , 
115, ,서울특별시 마포구 상암동  1536-1,126.8891246,37.56049353,한강공원화장실난지1,마포구,02-3780-0780,공중,상시,공원, , ,한강사업본부 환경과, , , 
116, ,서울특별시 마포구 상암동  482-417,126.8791763,37.56612686,한강공원화장실난지8,마포구,02-3780-0780,공중,상시,공원, , ,한강사업본부 환경과, , , 
117, ,서울특별시 도봉구 도봉동  2-6,127.0494572,37.69092611,중랑천변3,도봉구, ,공중화장실,상시, ,"여자대변기 2 남자대변기 1, 소변기 1",무, , , , 
118,서울특별시 강북구 솔매로49길 14,서울특별시 강북구 미아동 197-1,127.0270104,37.62708683,미아동복합청사 화장실,강북구, , , , , , , , , , 
119,서울특별시 강북구 삼양로19길 154,서울특별시 강북구 미아동 1353-8,127.0156668,37.61698637,강북구 보건소 삼각산보건지소,강북구, , , , , , , , , , 
120,서울특별시 강북구 삼양로47길 9,서울특별시 강북구 미아동 748-51,127.0185548,37.62292675,삼양동 종합복지센터 화장실,강북구, , , , , , , , , , 
121,서울특별시 강북구 도봉로69길 29,서울특별시 강북구 수유동 55-29,127.0218375,37.63055191,수유마을시장 공영주차장 화장실,강북구, , , , , , , , , , 
122,서울특별시 강북구 삼양로 204,서울특별시 강북구 미아동 734-108,127.020453,37.62202863,효성용양병원 화장실,강북구, , , , , , , , , , 
123,서울특별시 강북구 도봉로 74,서울특별시 강북구 미아동 70-20,127.0302889,37.61574529,햇빛병원 화장실,강북구, , , , , , , , , , 
124,서울특별시 강북구 도봉로 301,서울특별시 강북구 수유동 45-15,127.0227045,37.63542152,대한병원 화장실,강북구, , , , , , , , , , 
125,서울특별시 강북구 도봉로 266,서울특별시 강북구 미아동 189-6,127.0241469,37.63229407,포근한요양병원 화장실,강북구, , , , , , , , , , 
126,서울특별시 강북구 도봉로 181,서울특별시 강북구 미아동 304-7,127.0263268,37.62498509,성신병원 화장실,강북구, , , , , , , , , , 
127,서울특별시 강북구 덕릉로 73,서울특별시 강북구 수유동 47-9,127.0218402,37.6347792,신일병원 화장실,강북구, , , , , , , , , , 
128,서울특별시 강북구 삼양로91가길 19,서울특별시 강북구 수유동 405-8,127.0160132,37.63608153,수유북부시장 화장실,강북구, , , , , , , , , , 
129,서울특별시 강북구 삼양로 247,서울특별시 강북구 미아동 1359,127.0178469,37.62550394,롯데마트 삼양점 화장실,강북구, , , , , , , , , , 
130,서울특별시 서초구 양재천로 107-2,서울특별시 서초구 양재동 99-5,127.0408214,37.476796,양재천근린공원, ,02-2155-6736,공중화장실,상시,개방,남1 여1,남1 여1,손건조기, , , 
131, ,서울특별시 영등포구 여의도동 2,126.9215775,37.52460497,(임시화장실)여의도공원,영등포구, ,임시화장실(탄핵집회 대응),4월 3일(목) 오전 09:00부터 4월 5일(토) 24:00까지 운영,탄핵집회 장소,대변기(여) : 5개 대변기(남) : 2개 소변기(남) : 4개, , , , , 
132,서울특별시 종로구 율곡로 33,서울특별시 종로구 송현동 60-8,126.9828311,37.57581349,(임시화장실)안국역 송현공원 입구,종로구, ,임시화장실(탄핵집회 대응),4월 3일(목) 오전 09:00부터 4월 5일(토) 24:00까지 운영,탄핵집회 장소,대변기(여) : 5개 대변기(남) : 2개 소변기(남) : 4개, , , , , 
133,서울특별시 종로구 세종대로 159,서울특별시 종로구 세종로 1-68,126.9767697,37.57052277,(임시화장실)광화문역 7번 출구,종로구, ,임시화장실(탄핵집회 대응),4월 3일(목) 오전 09:00부터 4월 5일(토) 24:00까지 운영,탄핵집회 장소,대변기(여) : 5개 대변기(남) : 2개 소변기(남) : 4개, , , , , 
134,서울특별시 용산구 이태원로 294,서울특별시 용산구 한남동 727-56,127.0022237,37.54045695,(임시화장실)한강진역_블루스퀘어,용산구, ,임시화장실(탄핵집회 대응),4월 3일(목) 오전 09:00부터 4월 5일(토) 24:00까지 운영,탄핵집회 장소,대변기(여) : 5개 대변기(남) : 2개 소변기(남) : 4개, , , , , 
135,서울특별시 중구 세종대로 110,서울특별시 중구 태평로1가 54-3,126.9773742,37.56625556,(임시화장실)서울광장,중구, ,임시화장실(탄핵집회 대응),4월 3일(목) 오전 09:00부터 4월 5일(토) 24:00까지 운영,탄핵집회 장소,대변기(여) : 5개 대변기(남) : 2개 소변기(남) : 4개, , , , , 
136,서울특별시 서초구 중앙로 616,서울특별시 서초구 우면동 777,127.0203547,37.45877475,송동근린공원 공중화장실, ,02-2155-6865,공중화장실,정시,공중화장실, , , , , , 
137,서울특별시 강남구 선릉로108길 27,서울특별시 강남구 삼성동 113-27,127.046381,37.51030289,강남구치매지원센터 공영노외주차장,강남구,02-3423-5963,공공개방,정시,교통시설, , , , , , 
138,서울특별시 강남구 삼성로 610,서울특별시 강남구 삼성동 71,127.0531542,37.51419972,GKL빌딩,강남구, ,민간개방1, , , , , , , , 
139,서울특별시 강남구 압구정로79길 26,서울특별시 강남구 청담동 124-1,127.0492759,37.525087,청담문화센터,강남구,02-3423-5963,공공개방,정시,공공청사, , , , , , 
140,서울특별시 서초구 동산로 35,서울특별시 서초구 양재동 311,127.0423899,37.47181566,양재근린공원,서초구,02-2155-6737,공중,상시(연중 개방),공원,"남1, 여1",손건조기, , , , 
141,서울특별시 강남구 학동로20길 13,서울특별시 강남구 논현동 127-14,127.0285472,37.51220217,논현제2 공영주차장,강남구,02-3423-5963,공공개방,정시,교통시설, , , , , , 
142,서울특별시 강남구 학동로6길 19,서울특별시 강남구 논현동 123-11,127.0245881,37.51067703,논현제1 공영주차장,강남구,02-3423-5963,공공개방,정시,교통시설, , , , , , 
143,서울특별시 강남구 봉은사로 222,서울특별시 강남구 역삼동 652-2,127.0364663,37.50782224,서광주유소,강남구,02-3423-5963,공중,상시,주유소및충전소, , , , , , 
144,서울특별시 강남구 도곡로 176,서울특별시 강남구 도곡동 545-7,127.0388404,37.4914457,크리스빌딩(구 한웰빌딩),강남구,02-3423-5963,민간개방1,정시,빌딩, , , , , , 
145,서울특별시 강남구 도곡로 162,서울특별시 강남구 도곡동 546-3,127.0376842,37.49104262,선진주유소,강남구,02-3423-5963,공중,상시,주유소및충전소, , , , , , 
146,서울특별시 강남구 테헤란로 142,서울특별시 강남구 역삼동 736-1,127.0349344,37.49973051,아크플레이스(구 캐피탈타워),강남구,02-3423-5963,민간개방1,상시,빌딩, , , , , , 
147,서울특별시 강남구 테헤란로 419,서울특별시 강남구 삼성동 142-43,127.0521662,37.50586554,삼성금융플라자,강남구,02-3423-5963,민간개방1,정시,빌딩,"남2,여1", , , , , 
148,서울특별시 강남구 테헤란로 424,서울특별시 강남구 대치동 891,127.0534537,37.50548802,삼성대치타워,강남구,02-3423-5963,민간개방1,상시,빌딩,"남1,여1", , , , , 
149,서울특별시 강남구 테헤란로 503,서울특별시 강남구 삼성동 157-33,127.0571514,37.50747681,옥산빌딩,강남구,02-3423-5963,민간개방1,상시,빌딩, , , , , , 
150,서울특별시 강남구 테헤란로 440,서울특별시 강남구 대치동 892,127.056099,37.50577335,포스코,강남구,02-3423-5963,민간개방1,상시,빌딩,여1, , , , , 
151,서울특별시 강남구 테헤란로 619,서울특별시 강남구 삼성동 169-17,127.0651037,37.50991036,현대삼성동주유소,강남구,02-3423-5963,공중,상시,주유소및충전소, , , , , , 
152,서울특별시 강남구 테헤란로88길 14,서울특별시 강남구 대치동 943-27,127.0597103,37.50655716,신도빌딩,강남구,02-3423-5963,민간개방1,정시,빌딩, , , , , , 
301,서울특별시 강동구 고덕로61길 88,서울특별시 강동구 고덕동 497,127.1518109,37.55845085,두레근린공원,강동구,02%293425-5864,공중,상시,공원, ,손건조기, , , , 
302,서울특별시 강동구 동남로 888,서울특별시 강동구 상일동 147,127.1567567,37.55274168,상일쉼터(그루터기),강동구, , , , , , , , , , 
303,서울특별시 강동구 구천면로 258-6,서울특별시 강동구 천호동 280-9,127.1322626,37.54298063,고분다리시장 화장실,강동구, , , , , , , , , , 
304,서울특별시 강동구 진황도로29길 31,서울특별시 강동구 천호동 167-195,127.1331223,37.53906917,당말어린이공원,강동구, , , , , , , , , , 
305, ,서울특별시 송파구 방이동 88-16,127.1206872,37.52694945,성내유수지 체육시설 공원,송파구, , , , , , , , , , 
306,서울특별시 강동구 올림픽로 875,서울특별시 강동구 암사동 139-2,127.1303544,37.55947621,암사유적지 야외주차장 화장실,강동구, , , , , , , , , , 
307, ,서울특별시 강동구 암사동 193,127.1306022,37.55774639,암사역사공원,강동구, , , , , , , , , , 
308,서울특별시 강동구 올림픽로 874,서울특별시 강동구 암사동 188,127.1310605,37.55892972,암사역사 비지터 화장실,강동구, , , , , , , , , , 
309,서울특별시 강동구 고덕로 333,서울특별시 강동구 고덕동 692,127.1623617,37.56006782,고덕그라시움 화장실,강동구, , , , , , , , , , 
310,서울특별시 강동구 고덕로24길 23,서울특별시 강동구 암사동 453-8,127.1358361,37.55362769,볕우물어린이공원,강동구, , , , , , , , , , 
311, ,서울특별시 강동구 상일동 536,127.1746177,37.55629176,능골근린공원,강동구, , , , , , , , , , 
312, ,서울특별시 강동구 강일동 127-2,127.1704311,37.57371908,여울빛공원,강동구, , , , , , , , , , 
313, ,서울특별시 강동구 고덕동 산 98-1,127.1467821,37.56273911,가제골(전원마을),강동구,02%293425-5864,공중,상시,공원, , , , , , 
314,서울특별시 강동구 성안로 71,서울특별시 강동구 성내동 420-42,127.1315823,37.52998321,소망빌딩,강동구, , , , , , , , , , 
315,서울특별시 강동구 천호대로 1139,서울특별시 강동구 길동 459-3,127.1381,37.53459088,강동그린타워,강동구,02%293425-5864,민간개방1,상시,빌딩, , , , , , 
316,서울특별시 강동구 올림픽로 791,서울특별시 강동구 암사동 503-30,127.1278921,37.55173267,암사충전소,강동구,02%293425-5864,공중,상시,주유소및충전소, , , , , , 
317,서울특별시 강동구 올림픽로 795,서울특별시 강동구 암사동 503-21,127.127906,37.55220097,의정부 부대찌개,강동구,02%293425-5864,민간개방1,정시(13:00~24:00),빌딩, , , , , , 
318,서울특별시 강동구 천호대로157길 14,서울특별시 강동구 천호동 453-19,127.1273197,37.53822175,나비상가,강동구, , , , , , , , , , 
319,서울특별시 강동구 성내로 19,서울특별시 강동구 성내동 539-3,127.1228777,37.5302014,서경빌딩,강동구,02%293425-5864,민간개방1,정시(06:00~24:00),빌딩, , , , , , 
320,서울특별시 강동구 양재대로91길 59,서울특별시 강동구 성내동 424,127.1327754,37.52845461,선린어린이공원,강동구, , , , , , , , , , 
321,서울특별시 강동구 천호대로187길 62,서울특별시 강동구 길동 400-1,127.1431501,37.5369434,길동복조리시장 아름상가 고객화장실,강동구, , , , , , , , , , 
322,서울특별시 강동구 양재대로 1458,서울특별시 강동구 길동 411-4,127.1395726,37.53589823,길동빌딩,강동구, , , , , , , , , , 
323,서울특별시 강동구 풍성로54길 21,서울특별시 강동구 성내동 417-49,127.1340272,37.52848892,둔촌역전통시장 공영주차장내고객지원센터,강동구, , , , , , , , , , 
324,서울특별시 강동구 상암로11길 8,서울특별시 강동구 암사동 496-16,127.1289025,37.55002087,암사종합시장 고객화장실,강동구,02%293425-5864,민간개방1,정시(06:00~24:00),상가(전통시장), , , , , , 
325,서울특별시 강동구 동남로 990,서울특별시 강동구 고덕동 287,127.157585,37.562492,샘터근린공원 족구장 화장실,강동구,02%293425-5864,공중,상시,공원, ,손건조기, , , , 
326,서울특별시 관악구 남부순환로 1868,서울특별시 관악구 봉천동 1664-17,126.9569708,37.47934273,서계빌딩,관악구,02-885-5091,민간개방1,정시(08:00~18:00),빌딩, , , , , , 
327,서울특별시 종로구 세종대로 175,서울특별시 종로구 세종로 81-3,126.9757016,37.57261267,세종문화회관 충무공이야기(지하2층),종로구,02-399-1553,공공개방,정시(3월~10월까지 10:00 ~ 21:00(매주 월요일 휴관) 11월~2월까지 10:00 ~ 20:00(매주 월요일 휴관)),공용시설, , , , , , 
210,서울특별시 강동구 구천면로 189,서울특별시 강동구 천호동 563,127.1259409,37.54118736,이천일아울렛,강동구, , , , , , , , , , 
328,서울특별시 구로구 경인로59길 67,서울특별시 구로구 신도림동 390-68,126.88084,37.50763,신도림치안센터,구로구,02-2633-0335,공공개방,상시,공공청사, ,손건조기1, , , , 
329,서울특별시 구로구 디지털로31길 86,서울특별시 구로구 구로동 256-1,126.8913854,37.48665905,구로3파출소,구로구,02-866-0112,공공개방,상시,공공청사, ,손건조기1, , , , 
330,서울특별시 구로구 개봉로1가길 28,서울특별시 구로구 개봉동 360-4,126.8538048,37.48585063,개봉3치안센터,구로구,02-2612-0131,공공개방,상시,공공청사, , , , , , 
331,서울특별시 구로구 고척로1길 34,서울특별시 구로구 오류동 81-130,126.83884,37.49482,오류지구대,구로구,02-2612-6112,공공개방,상시,공공청사, , , , , , 
332,서울특별시 구로구 새말로 26,서울특별시 구로구 구로동 569-3,126.88389,37.50228,신구로지구대,구로구,02-853-0189,공공개방,상시,공공청사, ,손건조기1, , , , 
333,서울특별시 구로구 오리로 1102-8,서울특별시 구로구 천왕동 281-4,126.8425702,37.48384185,천왕파출소,구로구, , , , , , , , , , 
334,서울특별시 구로구 시흥대로 531,서울특별시 구로구 구로동 1131-4,126.8992132,37.48094281,에이치디현대오일뱅크(주)직영 구로셀프주유소,구로구,02-860-2998,공중,상시,주유소및충전소, , , , , , 
335,서울특별시 구로구 고척로 199,서울특별시 구로구 고척동 167-32,126.8554,37.505158,㈜자연에너지 고척주유소,구로구,02-860-2998,공중,정시(06:00~24:00),주유소및충전소, , , , , , 
336,서울특별시 구로구 고척로 115,서울특별시 구로구 개봉동 92-3,126.8468241,37.50189216,㈜개봉오일,구로구,02-860-2998,공중,정시(05:00~24:00),주유소및충전소, ,손건조기2, , , , 
337,서울특별시 구로구 개봉로 7,서울특별시 구로구 개봉동 359-1,126.8560905,37.48618903,㈜새서울석유 대원주유소,구로구,02-860-2998,공중,상시,주유소및충전소, , , , , , 
190,서울특별시 종로구 자하문로 248,서울특별시 종로구 부암동 155-3,126.9642642,37.5964508,자하문주유소(1층),종로구,02-2148-2475,민간개방,상시(연중개방),주유소및충전소, , , , , , 
191, ,서울특별시 종로구 누상동 산 1-38,126.9630403,37.57906276,인왕산도시자연공원 인왕배드민턴장(1층),종로구,02-2148-2383,공중,상시(연중개방),공원, ,손건조기2, , , , 
192,서울특별시 종로구 옥인6길 26-17,서울특별시 종로구 누상동 산 1-3,126.9640408,37.58049914,누상동체육시설 공중화장실,종로구,02-2148-2383,공공개방,상시(연중개방),공용시설, , , , , , 
193,서울특별시 종로구 창의문로 42,서울특별시 종로구 청운동 산 1-1,126.9717535,37.59131537,북악산도시자연공원 창의문(1층),종로구,02-2148-2383,공중,상시(연중개방),공원, ,손건조기2, , , , 
194, ,서울특별시 종로구 삼청동 산 2-1,126.9750925,37.5957094,청운대쉼터 공중화장실,종로구, ,공중화장실, ,등산로, , , , , , 
195,서울특별시 종로구 와룡공원길 192,서울특별시 종로구 명륜3가 53-52,126.9901245,37.5911515,와룡공원 입구(1층),종로구,02-2148-2383,공중,상시(연중개방),공원, ,손건조기2, , , , 
196,서울특별시 종로구 명륜10길 10-3,서울특별시 종로구 명륜3가 산 2-13,126.991948,37.59116518,와룡공원주변 공중화장실(주차장),종로구,02-2148-2383,공중,상시(연중개방),공원, , , , , , 
197,서울특별시 종로구 계동길 37,서울특별시 종로구 계동 105,126.986434,37.57908252,북촌문화센터,종로구, ,민간개방,화~금(09:00~18:00) 토~일(09:00~17:00) 월 휴관, , , , , , , 
198,서울특별시 종로구 우정국로 59,서울특별시 종로구 견지동 39-8,126.9826831,37.57428638,우정총국(1층),종로구,02-2148-2383,공공개방,상시(연중개방),공용시설, ,"비상벨6, 손건조기2", , , , 
199,서울특별시 종로구 율곡로 5,서울특별시 종로구 사간동 97-2,126.9804753,37.57625515,열린송현녹지광장 화장실,종로구, ,공공개방,상시, , , , , , , 
200,서울특별시 강동구 양재대로112길 57,서울특별시 강동구 길동 403,127.1431302,37.5363507,강동우체국,강동구, , , , , , , , , , 
201,서울특별시 강동구 구천면로 188,서울특별시 강동구 천호동 425-6,127.1255189,37.54069929,천호우체국,강동구, , , , , , , , , , 
202,서울특별시 강동구 아리수로91길 12,서울특별시 강동구 강일동 678-2,127.1734459,37.56471168,강일우체국,강동구, , , , , , , , , , 
203,서울특별시 강동구 고덕로80길 8,서울특별시 강동구 상일동 519-2,127.1651789,37.55610538,고덕우체국,강동구, , , , , , , , , , 
204,서울특별시 강동구 성내로 51,서울특별시 강동구 성내동 541-4,127.1260584,37.5290059,강동수도사업소,강동구, , , , , , , , , , 
205,서울특별시 강동구 성내로 45,서울특별시 강동구 성내동 541-2,127.1256615,37.52916466,강동구보건소,강동구,02%293425-6600,공공개방,정시(09:00~18:00),공공청사,"남1, 여1","기저귀교환대1,유아용보호의자1,비상벨2", , , , 
206,서울특별시 강동구 양재대로 1318,서울특별시 강동구 둔촌동 522-9,127.1354776,37.52377592,한전강동송파지사 화장실,강동구, , , , , , , , , , 
207,서울특별시 강동구 올림픽로 702,서울특별시 강동구 천호동 360,127.125651,37.54371925,해공도서관,강동구,02%292045-7912,공공개방,정시(09:00~22:00),공용시설,"남1,여1","기저귀교환대1,비상벨2,손건조기", , , , 
208,서울특별시 강동구 올림픽로 528,서울특별시 강동구 성내동 451,127.1203046,37.52875319,하나로성내점,강동구, , , , , , , , , , 
209,서울특별시 강동구 양재대로 1571,서울특별시 강동구 천호동 42,127.1422311,37.545668,홈플러스강동점,강동구, , , , , , , , , , 
271, ,서울특별시 강동구 암사동 139-2,127.1321692,37.5619989,선사체험교실 화장실,강동구, , , , , , , , , , 
211,서울특별시 강동구 천호대로 1005,서울특별시 강동구 천호동 572,127.1244474,37.53880304,현대백화점,강동구, , , , , , , , , , 
212,서울특별시 강동구 천호대로 1017,서울특별시 강동구 천호동 454-1,127.1257213,37.53870793,신세계 이마트 천호지점 화장실,강동구, , , , , , , , , , 
213,서울특별시 강동구 고덕로 276,서울특별시 강동구 명일동 46-4,127.1557622,37.55480289,신세계 이마트 명일점 공중화장실,강동구, , , , , , , , , , 
214,서울특별시 강동구 올림픽로 556,서울특별시 강동구 성내동 319-1,127.12124,37.53141649,㈜퍼스트오일 코알라주유소,강동구,02%293425-5864,공중,상시,주유소및충전소, , , , , , 
215,서울특별시 용산구 한남대로 90,서울특별시 용산구 한남동 707-10,127.0059109,37.53640995,프란치스코 수도회 1층,용산구, ,민간개방(집회로 임시개방),상시,종교시설, , , , , , 
216,서울특별시 용산구 한남대로 98,서울특별시 용산구 한남동 714,127.0055,37.53723,일신빌딩,용산구, ,민간개방( 집회로 임시개방),상시, , , , , , , 
217,서울특별시 강동구 동남로 610,서울특별시 강동구 둔촌동 산 15-1,127.1485825,37.52864242,중앙보훈병원역,강동구, , , , , , , , , , 
218,서울특별시 강동구 아리수로27길 2,서울특별시 강동구 암사동 378,127.1375682,37.55713703,암사역사공원역역,강동구, , , , , , , , , , 
219,서울특별시 용산구 이태원로 294,서울특별시 용산구 한남동 727-35,127.0031284,37.54123641,카페 드블루 공중화장실,용산구, ,민간개방(집회로 인한 임시개방),08:00~20:00, , , , , , , 
220,서울특별시 강동구 진황도로61길 53, ,127.1477583,37.52941513,보훈병원,강동구, , , , , , , , , , 
221,서울특별시 강동구 진황도로61길 53,서울특별시 강동구 둔촌동 6-2,127.1483063,37.53082739,종합재활센터 1층 화장실,강동구, , , , , , , , , , 
222,서울특별시 강동구 진황도로61길 53,서울특별시 강동구 둔촌동 6-2,127.147196,37.52866082,보훈의학연구소 1층 화장실,강동구, , , , , , , , , , 
223,서울특별시 강동구 진황도로61길 53,서울특별시 강동구 둔촌동 6-2,127.1476231,37.52808522,중앙보훈장례식장,강동구, , , , , , , , , , 
224,서울특별시 강동구 진황도로61길 53,서울특별시 강동구 둔촌동 6-2,127.1479299,37.53024489,중앙관 2층 로비 화장실,강동구, , , , , , , , , , 
225,서울특별시 용산구 한남대로21길 4,서울특별시 용산구 한남동 704-14,127.0061031,37.53471915,(주)중앙에너비스 한남지점,용산구,02-8707-4505,민간 개방,06:00~22:00,주유소,"남성 대변기 1, 소변기 1, 여성대변기 1",없음,없음, , , 
226,서울특별시 용산구 이태원로 294,서울특별시 용산구 한남동 727-56,127.0022695,37.5405979,블루스퀘어,용산구,02-1544-1591,민간 개방,11:00~19:00, ,"남성, 여성",여성용, , , , 
227,서울특별시 영등포구 국회대로 800,서울특별시 영등포구 여의도동 13,126.921066,37.53092439,여의도파라곤 개방화장실,영등포구,02-785-8196,민간개방1,상시,빌딩, , , , , , 
228,서울특별시 영등포구 국회대로62길 23,서울특별시 영등포구 여의도동 17-20,126.9175351,37.52654887,원정빌딩 개방화장실,영등포구,02-783-1974,민간개방1,07:00~22:00,빌딩, , , , , , 
229,서울특별시 영등포구 국회대로62길 25,서울특별시 영등포구 여의도동 17-10,126.9177001,37.52631636,교육시설공제회관 개방화장실,영등포구,02-781-0171,민간개방1,10:00~20:00,빌딩, , , , , , 
230,서울특별시 강동구 아리수로93길 47,서울특별시 강동구 강일동 665-2,127.1731469,37.56641215,시립강동청소년센터,강동구, , , , , , , , , , 
231,서울특별시 종로구 삼봉로 57,서울특별시 종로구 수송동 68-1,126.9804568,37.5725551,버거킹(수송동점),종로구,02-722-0238,민간개방,정시(09:00~22:00),민간, , , , , , 
232,서울특별시 종로구 새문안로5길 13,서울특별시 종로구 당주동 160,126.9743964,37.57136234,변호사회관,종로구,02-736-6689,민간개방1,평일(07:00-23:00) 주말(09:00~19:00),빌딩, , , , , , 
233,서울특별시 강동구 양재대로116길 57,서울특별시 강동구 길동 362,127.1438043,37.53859937,강동도서관,강동구, , , , , , , , , , 
234,서울특별시 종로구 종로 38,서울특별시 종로구 서린동 63,126.9814923,37.5698379,서울글로벌센터 개방화장실,종로구,02-739-6806,공공개방,정시 평일(09:00~18:00) 주말(07:00~15:00),"국제기구 유치, 외국인 생활 지원 등 국제 교류 협력 증진을 목표로 운영하는 국제기구 전용 빌딩","남자화장실, 여자화장실","장애인용 남자화장실, 장애인용 여자화장실","기저귀 교환대, 비상벨 설치 등",Y,종로구 종로38 글로벌센터빌딩 1층, 
235,서울특별시 종로구 세종대로 175,서울특별시 종로구 세종로 81-3,126.9757016,37.57261267,"세종문화회관 사무동 1층,2층 로비",종로구,02-399-1553,공공개방,정시(07:00 ~ 21:30),공용시설, , , , , , 
236,서울특별시 종로구 세종대로 175,서울특별시 종로구 세종로 81-3,126.9757016,37.57261267,세종문화회관 광화문아띠(지하1층) 남측,종로구,02-399-1553,공공개방,정시(08:00 ~ 22:30),공용시설, , , , , , 
237,서울특별시 종로구 세종대로 175,서울특별시 종로구 세종로 81-3,126.9757016,37.57261267,세종문화회관 광화문아띠(지하1층) 북측,종로구,02-399-1553,공공개방,정시(09:00 ~ 22:30),공용시설, , , , , , 
238,서울특별시 강동구 성내로 57,서울특별시 강동구 성내동 541-1,127.1270452,37.52857186,강동경찰서 화장실,강동구, , , , , , , , , , 
239,서울특별시 중구 청계천로 30,서울특별시 중구 다동 33,126.9807325,37.56852084,예금보험공사(남:지하1층                          여:지하1층),중구,02-758-0810,공공개방,"평일,주말 구분없이 (08:00~23:00)",빌딩, ,손건조기2  기저귀교환대2, , , , 
240,서울특별시 중구 세종대로 141,서울특별시 중구 태평로1가 68-1,126.9764523,37.56895816,세종로파출소,중구,02-3701-4312, ,09:00~18:00(평일만 개방), , , , , , , 
241,서울특별시 종로구 세종대로 149,서울특별시 종로구 신문로1가 150,126.9761598,37.56948619,광화문빌딩,종로구,02-399-3233,민간개방1,07:00~19:00,빌딩,"남 : 양변기 1, 소변기 2 여 : 양변기 2", , , , , 
242,서울특별시 중구 다동길 11,서울특별시 중구 다동 46,126.979972,37.56800591,태평로파출소,중구,02-2076-8471,공공개방,상시(평일만 개방),공공청사,"공용 : 대변기 1, 소변기 1", , , , , 
243,서울특별시 중구 덕수궁길 61,서울특별시 중구 서소문동 37,126.9737629,37.56411893,서울시립미술관,중구,02-2124-8874, ,10:00~19:00, , , , , , , 
244,서울특별시 중구 소공로 109,서울특별시 중구 소공동 110,126.9785341,37.56418978,한화빌딩,중구,02-310-7166,민간개방1,상시,빌딩,"남 : 양변기 3, 소변기 4 여 : 양변기 3", , , , , 
245, ,서울특별시 강동구 고덕동 108-4,127.165549,37.56639538,고덕유수지 야구장 화장실,강동구, , , , , , , , , , 
246,서울특별시 종로구 인사동길 35-6,서울특별시 종로구 관훈동 196-12,126.9850395,37.57334437,인사동마루 본관 개방화장실,종로구, ,민간개방,연중무휴(10:30~20:00),갤러리, , , , , , 
247,서울특별시 종로구 인사동길 35-4,서울특별시 종로구 관훈동 192-15,126.9849352,37.57357601,인사동마루 신관 개방화장실,종로구, ,민간개방,정시 연중무휴(10:30~20:00),갤러리, , , , , , 
248,서울특별시 종로구 인사동길 34-1,서울특별시 종로구 관훈동 21,126.9856914,37.5738452,인사아트프라자 개방화장실,종로구, ,민간개방,연중무휴(10:00~18:30),빌딩, , , , , , 
249,서울특별시 종로구 삼일대로 457,서울특별시 종로구 경운동 88,126.9857784,37.57518929,수운회관,종로구,02-734-0773,민간개방1,정시(07:00-21:00),빌딩, , , , , , 
250,서울특별시 종로구 삼일대로 428,서울특별시 종로구 낙원동 284-2,126.987889,37.57275707,허리우드극장(낙원상가4층),종로구,02-2148-2383,민간개방,"평일,토(08:00-20:00) 일 휴관",민간, , , , , , 
251,서울특별시 종로구 율곡로3길 4,서울특별시 종로구 안국동 175-2,126.9833181,37.57663476,서울공예박물관(우측 5층건물),종로구,02-6450-7000,공공개방,"(화~목, 토) 10시~18시, (금요일) 10시~21시, 월 휴관, 1월 1일 휴관", ,"전시3동 1층, 교육동 1층", , , , , 
252,서울특별시 종로구 삼일대로 464,서울특별시 종로구 운니동 114-10,126.9867587,37.57611811,운현궁,종로구,02-766-9060,공공개방,"평일, 토, 일(09:00~18:00) 월요일 휴관",공용시설, , , , , , 
253,서울특별시 종로구 인사동11길 8,서울특별시 종로구 관훈동 182-2,126.984112,37.57400054,한국공예문화진흥원,종로구,02-732-9382,민간개방1,(10:00-18:00)  월요일 휴관,문화시설,"남1,여1", , , , , 
254,서울특별시 강동구 동남로 563,서울특별시 강동구 둔촌동 115-2,127.1467323,37.52499541,복지둔촌충전소 화장실,강동구, , , , , , , , , , 
255,서울특별시 강동구 천호대로 1452,서울특별시 강동구 상일동 443-5,127.1699065,37.54502527,복지상일충전소 화장실,강동구, , , , , , , , , , 
256,서울특별시 강동구 상일로 132,서울특별시 강동구 강일동 712,127.1714483,37.55870312,해뜨는 주유소,강동구, , , , , , , , , , 
257,서울특별시 강동구 동남로 811,서울특별시 강동구 명일동 216-5,127.1556272,37.54600527,방아다리 주유소,강동구, , , , , , , , , , 
258,서울특별시 강동구 구천면로 357, ,127.1382488,37.5504353,구천면 주유소,강동구, , , , , , , , , , 
259,서울특별시 강동구 성안로 102,서울특별시 강동구 성내동 385-4,127.133096,37.53232018,(주)지유에너지직영 오렌지주유소,강동구, , , , , , , , , , 
260,서울특별시 강동구 천중로 67,서울특별시 강동구 천호동 308-11,127.1294931,37.54506086,천호 현대주유소,강동구, , , , , , , , , , 
261,서울특별시 강동구 천호대로 1246,서울특별시 강동구 둔촌동 600-1,127.1492861,37.5365772,재건에너지재정제2주유소고속셀프지점,강동구,02%293425-5864,공중,상시,주유소및충전소, , , , , , 
262,서울특별시 강동구 올림픽로 673,서울특별시 강동구 천호동 354-4,127.1242127,37.54158072,광성주유소,강동구, , , , , , , , , , 
263,서울특별시 강동구 아리수로93길 9-14,서울특별시 강동구 강일동 678,127.1741042,37.56502221,강일도서관,강동구, , , , , , , , , , 
264,서울특별시 강동구 성안로31마길 1,서울특별시 강동구 천호동 174-4,127.1341176,37.54039838,천호도서관,강동구, , , , , , , , , , 
265,서울특별시 강동구 동남로49길 21-8,서울특별시 강동구 둔촌동 29-11,127.1481348,37.53178908,둔촌도서관,강동구, , , , , , , , , , 
266,서울특별시 강동구 동남로 930,서울특별시 강동구 고덕동 302,127.1569354,37.55696279,강동구청 고덕별관 화장실,강동구, , , , , , , , , , 
267,서울특별시 강동구 천호대로 1183,서울특별시 강동구 길동 228-10,127.1427083,37.53449501,공중화장실(주민센터),강동구,02%293425-7850,공공개방,정시(09:00~18:00),공용시설, ,손건조기, , , , 
268,서울특별시 강동구 천중로21길 29,서울특별시 강동구 천호동 302-7,127.132109,37.54602448,강동구립 해공노인복지관(신관) 화장실,강동구, , , , , , , , , , 
269,서울특별시 강동구 동남로71길 32-5,서울특별시 강동구 명일동 48-10,127.154234,37.55230393,강동노인종합복지관 화장실,강동구, , , , , , , , , , 
270,서울특별시 강동구 올림픽로 875,서울특별시 강동구 암사동 139-2,127.1311644,37.56139412,박물관앞 화장실,강동구, , , , , , , , , , 
272,서울특별시 서대문구 세검정로4길 150,서울특별시 서대문구 홍제동 9-81,126.9537214,37.58976211,홍제1 공중화장실,서대문구,02-330-1518,공중화장실,상시,공중화장실,"남: 대변기 2, 소변기 3 /여: 대변기 3",없음(인근 장애인화장실 위치), , , , 
273,서울특별시 강동구 올림픽로 875,서울특별시 강동구 암사동 139-2,127.1297629,37.56089624,복원움집 뒤 화장실,강동구, , , , , , , , , , 
274,서울특별시 강동구 올림픽로 875,서울특별시 강동구 암사동 139-2,127.1309256,37.55988811,매표소 뒤 화장실,강동구, , , , , , , , , , 
275,서울특별시 서대문구 세검정로4길 11,서울특별시 서대문구 홍제동 280-2,126.9487602,37.59465564,문화소공원 공중화장실,서대문구,02-330-1518,공중화장실,상시,공중화장실, , , , , , 
276,서울특별시 서대문구 봉원사길 75-14,서울특별시 서대문구 봉원동 20,126.9460878,37.57045732,봉원1 공중화장실,서대문구,02-330-1518,공중화장실,상시,공중화장실,"남1, 여1",공용1,"기저귀교환대, 손건조기", , , 
277,서울특별시 서대문구 불광천길 159,서울특별시 서대문구 북가좌동 352-1,126.9091265,37.5823213,북가좌 공중화장실,서대문구,02-330-1518,공중화장실,상시,화장실, ,"남1, 여1", , , , 
278,서울특별시 서대문구 증가로 150,서울특별시 서대문구 남가좌동 388,126.9220095,37.57841828,DMC센트럴아이파크 개방화장실,서대문구,02-330-1519,민간 개방화장실,07:00~23:00, , ,"남1, 여1", , , , 
279,서울특별시 강동구 성안로31마길 1,서울특별시 강동구 천호동 174-2,127.1340168,37.54075297,천호3동제2 공영주차장 화장실,강동구, , , , , , , , , , 
280,서울특별시 강동구 성안로25길 40,서울특별시 강동구 천호동 167-195,127.1333138,37.53868894,천호3동 공영주차장 화장실,강동구, , , , , , , , , , 
281,서울특별시 강동구 고덕로83길 55,서울특별시 강동구 고덕동 215,127.1683726,37.55971981,한국자유총연맹강동지부 화장실(민속의집),강동구, , , , , , , , , , 
282,서울특별시 강동구 고덕로83길 55,서울특별시 강동구 고덕동 215,127.1680297,37.55980901,민속의집,강동구,02%293425-5864,공중,상시,공원, , , , , , 
283,서울특별시 강동구 동남로 990,서울특별시 강동구 고덕동 287,127.1575936,37.56220607,샘터배드민턴 화장실,강동구, , , , , , , , , , 
284,서울특별시 강동구 고덕로 399,서울특별시 강동구 고덕동 210-1,127.1695669,37.55784835,고덕어울림수영장 화장실,강동구, , , , , , , , , , 
285,서울특별시 서대문구 통일로 279-73,서울특별시 서대문구 현저동 107-479,126.9530826,37.57298037,현저 공중화장실,서대문구,02-330-1518,공중화장실,상시,공중화장실,"남: 대변기 2, 소변기 3, 여: 대변기 3",없음(인근 장애인용 화장실 위치),"손건조기, 비상벨", ,안산 천연동 황톳길 초입, 
286,서울특별시 서대문구 홍제천로 111-1,서울특별시 서대문구 연희동 696,126.9265407,37.5751343,홍남교1 공중화장실,서대문구,02-330-1518,공중화장실,상시,화장실,"남: 대변기 1, 소변기 여: 대변기2",손건조기,"손건조기, 비상벨", , , 
287,서울특별시 강동구 동남로 785,서울특별시 강동구 명일동 221-1,127.1540267,37.54449871,명일테니스장 화장실,강동구, , , , , , , , , , 
288,서울특별시 강동구 상일로12길 60,서울특별시 강동구 상일동 483,127.1741921,37.55522474,강동유소년스포츠센터 개방화장실,강동구, , , , , , , , , , 
289,서울특별시 서대문구 거북골로 145,서울특별시 서대문구 북가좌동 480,126.9133814,37.57513725,중앙근린공원 공중화장실,서대문구,02-330-1518,공중화장실,상시,공중화장실, ,"남1, 여1","기저귀교환대, 영유아보호의자, 손건조기", , , 
290,서울특별시 서대문구 모래내로 246,서울특별시 서대문구 남가좌동 79-1,126.9260851,37.5755678,홍남교2 공중화장실,서대문구,02-330-1518,공중,상시, , ,"남1, 여1", , , , 
291,서울특별시 서대문구 홍은중앙로8길 2-9,서울특별시 서대문구 홍은동 9-685,126.9475834,37.5986965,홍은1 공중화장실,서대문구,02-330-1510,무인공중,상시,화장실,공용1(별도),손건조기, , , , 
292,서울특별시 강동구 동남로 614,서울특별시 강동구 둔촌동 산 125,127.1492771,37.5289464,일자산 숲속화장실(약수터),강동구,02%293425-5864,공중,상시,공원, ,손건조기, , , , 
293, ,서울특별시 강동구 둔촌동 산 120,127.1524137,37.53349405,제1체육관 뒤 화장실,강동구, , , , , , , , , , 
294,서울특별시 강동구 상암로79길 88,서울특별시 강동구 상일동 산 26-1,127.1650143,37.54988332,명일근린공원(상일동산),강동구, , , , , , , , , , 
295, ,서울특별시 강동구 상일동 491,127.1725808,37.55347165,게네 물놀이장 화장실,강동구, , , , , , , , , , 
296,서울특별시 강동구 상일로 132,서울특별시 강동구 강일동 703,127.171678,37.55860011,게네 수변공원(SK뒤) 화장실,강동구, , , , , , , , , , 
297,서울특별시 강동구 상일로12길 77,서울특별시 강동구 상일동 534,127.1726162,37.55573415,게내 수변공원(공원관리소),강동구, , , , , , , , , , 
298,서울특별시 강동구 고덕로 333,서울특별시 강동구 고덕동 215,127.166262,37.5596282,동명근린공원(배드민턴),강동구,02%293425-5864,공중,상시,공원, ,손건조기, , , , 
299, ,서울특별시 강동구 고덕동 287,127.1601785,37.5608457,철봉공원(고덕약수터),강동구,02%293425-5864,공중,상시,공원, ,손건조기, , , , 
300, ,서울특별시 강동구 고덕동 296,127.1587195,37.55678093,방죽공원 화장실,강동구, , , , , , , , , , 
448,서울특별시 동작구 상도로 334,서울특별시 동작구 상도동 468-1,126.9513856,37.49839291,살피재주유소,동작구,02-820-9142,공중,상시(연중개방),주유소및충전소, , , , , , 
449,서울특별시 동작구 시흥대로 616,서울특별시 동작구 신대방동 686-44,126.9056284,37.48711907,sk네트워크㈜ 21c주유소,동작구,02-820-9142,공중,상시(연중개방),주유소및충전소, ,손건조기2, , , , 
450,서울특별시 동작구 현충로 101,서울특별시 동작구 흑석동 9-46,126.9652225,37.50809545,sk네트워크㈜ 흑석동주유소,동작구,02-820-9142,공중,상시(연중개방),주유소및충전소, , , , , , 
451,서울특별시 동작구 동작대로 135,서울특별시 동작구 사당동 86-3,126.9819463,37.48867884,남성주유소,동작구,02-820-9142,공중,상시(연중개방),주유소및충전소, ,손건조기2, , , , 
452,서울특별시 동작구 장승배기로 161,서울특별시 동작구 노량진동 47-2,126.9394447,37.51228896,동작구청사,동작구,02-820-9142,공공개방,상시(연중개방),공공청사,"남6,여7",손건조기6, , , , 
453,서울특별시 동작구 장승배기로28길 30,서울특별시 동작구 노량진동 84-100,126.9420054,37.51226253,노량진1동주민센터,동작구,02-820-9142,공공개방,"정시(09:00~18:00,평일만)",공공청사,여1,손건조기2, , , , 
454,서울특별시 동작구 상도로39가길 7,서울특별시 동작구 상도1동 456,126.9496621,37.5024738,상도종합사회복지관,동작구,02-820-9142,공공개방,"정시(09:00~18:00,평일만)",공용시설,"남3,여3",손건조기5, , , , 
455,서울특별시 동작구 사당로17길 86,서울특별시 동작구 사당동 169-12,126.9720419,37.48665054,사당3동주민센터,동작구,02-820-9142,공공개방,"정시(09:00~18:00,평일만)",공공청사,"남2,여1",손건조기2, , , , 
456,서울특별시 동작구 동작대로29길 52,서울특별시 동작구 사당동 105-12,126.9792191,37.48872471,사당2동주민센터,동작구,02-820-9142,공공개방,"정시(09:00~18:00,평일만)",공공청사,남1,손건조기3, , , , 
457,서울특별시 동작구 장승배기로19길 48,서울특별시 동작구 노량진동 302-411,126.9373418,37.50845522,노량진2동주민센터,동작구,02-820-9142,공공개방,"정시(09:00~18:00,평일만)",공공청사, ,손건조기4, , , , 
458,서울특별시 동작구 상도로53길 9,서울특별시 동작구 상도동 437,126.9530628,37.49809757,상도1동주민센터,동작구,02-820-9142,공공개방,"정시(09:00~18:00,평일만)",공공청사,"남1,여1",손건조기2, , , , 
459,서울특별시 동작구 상도로 211,서울특별시 동작구 상도동 25-48,126.9422827,37.50546529,상도2동주민센터,동작구,02-820-9142,공공개방,"정시(09:00~18:00,평일만)",공공청사,"남1,여1","유야용보호의자1,비상벨1,손건조기2", , , , 
460,서울특별시 동작구 성대로2길 11,서울특별시 동작구 상도동 315-37,126.9313876,37.49912847,상도3동주민센터,동작구,02-820-9142,공공개방,"정시(09:00~18:00,평일만)",공공청사,"남1,여1","유야용보호의자1,비상벨,손건조기2", , , , 
461,서울특별시 동작구 성대로29길 53,서울특별시 동작구 상도동 188-81,126.9377442,37.50058181,상도4동주민센터,동작구,02-820-9142,공공개방,"정시(09:00~18:00,평일만)",공공청사, ,손건조기2, , , , 
462,서울특별시 동작구 흑석로13길 13,서울특별시 동작구 흑석동 341-6,126.960503,37.50952005,흑석동 주민센터,동작구,02-820-9142,공공개방,"정시(09:00~18:00,평일만)",공공청사,여1,"기저귀교환대1,유야용보호의자1,손건조기7", , , , 
463,서울특별시 동작구 동작대로17길 28,서울특별시 동작구 사당동 1004-52,126.9787403,37.48303736,사당1동 주민센터,동작구,02-820-9142,공공개방,"정시(09:00~18:00,평일만)",공공청사,"남2,여2","기저귀교환대2,손건조기2", , , , 
464,서울특별시 동작구 사당로16아길 10,서울특별시 동작구 사당동 300-8,126.9714708,37.48095255,사당4동주민센터,동작구,02-820-9142,공공개방,"정시(09:00~18:00,평일만)",공공청사,남1,손건조기2, , , , 
465,서울특별시 동작구 사당로2가길 219,서울특별시 동작구 사당동 228-11,126.9669609,37.48566022,사당5동주민센터,동작구,02-820-9142,공공개방,"정시(09:00~18:00,평일만)",공공청사, ,손건조기2, , , , 
466,서울특별시 동작구 여의대방로44길 20,서울특별시 동작구 대방동 350-8,126.9263623,37.50818315,대방동주민센터,동작구,02-820-9142,공공개방,"정시(09:00~18:00,평일만)",공공청사,남1,손건조기4, , , , 
467,서울특별시 동작구 신대방길 72,서울특별시 동작구 신대방동 604-8,126.9100355,37.48893183,신대방1동주민센터,동작구,02-820-9142,공공개방,"정시(09:00~18:00,평일만)",공공청사, ,손건조기5, , , , 
468,서울특별시 동작구 여의대방로24길 105,서울특별시 동작구 대방동 407-41,126.9258386,37.49891859,신대방2동주민센터,동작구,02-820-9142,공공개방,"정시(09:00~18:00,평일만)",공공청사,남1,손건조기3, , , , 
469,서울특별시 동작구 여의대방로44길 47,서울특별시 동작구 대방동 503,126.9300281,37.50972397,대방종합사회복지관,동작구,02-820-9142,공공개방,"정시(09:00~18:00,평일만)",공용시설,"남2,여3",손건조기6, , , , 
470,서울특별시 동작구 장승배기로 73,서울특별시 동작구 상도동 364-36,126.939101,37.50415928,상도지구대,동작구,02-820-9142,공공개방,상시(연중개방),공공청사,"남1,여1", , , , , 
471,서울특별시 동작구 등용로12나길 2,서울특별시 동작구 대방동 68-55,126.9333385,37.5111695,노량진지구대,동작구,02-820-9142,공공개방,상시(연중개방),공공청사, , , , , , 
472,서울특별시 동작구 사당로 63,서울특별시 동작구 상도동 106,126.9615729,37.49479745,백운119안전센터,동작구,02-820-9142,공공개방,상시(연중개방),공공청사,"남1,여1", , , , , 
473,서울특별시 동작구 사당로17길 4,서울특별시 동작구 사당동 169-21,126.9746359,37.48359125,남성지구대,동작구,02-820-9142,공공개방,상시(연중개방),공공청사,"남1,여1", , , , , 
474,서울특별시 동작구 국사봉1길 17,서울특별시 동작구 상도동 324-21,126.929451,37.49900283,상도 119안전센터,동작구,02-820-9142,공공개방,상시(연중개방),공공청사,"남1,여1", , , , , 
353,서울특별시 구로구 서해안로 2154,서울특별시 구로구 항동 72,126.8278287,37.48344004,S-OIL 극동유화 항동주유소,구로구, , , , , , , , , , 
475,서울특별시 동작구 양녕로22바길 64,서울특별시 동작구 상도동 211-77,126.9474183,37.49788368,약수작은도서관,동작구,02-820-9142,공공개방,"정시(09:00~18:00,매주월요일,국경일제외)",공용시설,"남1,여1",손건조기2, , , , 
476,서울특별시 동작구 동작대로29길 63-26,서울특별시 동작구 사당동 1136-1,126.9775605,37.48838324,샘터도서관,동작구,02-820-9142,공공개방,"정시(09:00~18:00,매주월요일,국경일제외)",공용시설, ,"비상벨2,손건조기2", , , , 
477,서울특별시 동작구 여의대방로10길 97,서울특별시 동작구 신대방동 470-11,126.915274,37.49230059,남부수도사업소,동작구,02-820-9142,공공개방,"정시(09:00~18:00,평일만)",공공청사, , , , , , 
478,서울특별시 동작구 남부순환로 2069,서울특별시 동작구 사당동 1044-13,126.9787611,37.47693144,사당노인종합복지관,동작구,02-820-9142,공공개방,"정시(09:00~18:00,평일만)",공용시설,"남1,여1","비상벨2,손건조기22", , , , 
479,서울특별시 동작구 동작대로35차길 7,서울특별시 동작구 사당동 52-3,126.9768484,37.49313567,동작이수사회복지관,동작구,02-820-9142,공공개방,"정시(09:00~18:00,평일만)",공용시설,"남6,여3",손건조기5, , , , 
480,서울특별시 동작구 사당로14길 20,서울특별시 동작구 사당동 268-6,126.971374,37.48326907,사당종합사회복지관,동작구,02-820-9142,공공개방,"정시(09:00~18:00,평일만)",공용시설,"남5,여3",손건조기5, , , , 
481,서울특별시 동작구 등용로 47,서울특별시 동작구 대방동 5-1,126.9333723,37.50571692,동작종합사회복지관,동작구,02-820-9142,공공개방,"정시(09:00~18:00,평일만)",공용시설,여1,손건조기6, , , , 
482,서울특별시 동작구 상도로11길 7,서울특별시 동작구 대방동 335-10,126.9290654,37.50043456,동작노인종합복지관,동작구,02-820-9142,공공개방,"정시(09:00~18:00,평일만)",공용시설,"남8,여3",손건조기5, , , , 
483,서울특별시 동작구 장승배기로16길 98,서울특별시 동작구 노량진동 225-161,126.9434779,37.50923767,동작어린이도서관화장실,동작구,02-820-9142,공공개방,"정시(09:00~18:00,매주월요일,국경일제외)",공용시설,"남3,여1",기저귀교환대1, , , , 
484,서울특별시 동작구 여의대방로16길 55,서울특별시 동작구 신대방동 460-19,126.9177002,37.49467301,동작 119안전센터,동작구,02-820-9142,공공개방,상시(연중개방),공공청사,"남1,여1", , , , , 
338,서울특별시 구로구 경인로 150,서울특별시 구로구 오류동 77-10,126.838393,37.49333397,서서울고속주유소,구로구,02-860-2998,공중,정시(06:00~24:00),주유소및충전소, , , , , , 
339,서울특별시 구로구 오리로 1299,서울특별시 구로구 궁동 283-2,126.8289474,37.49739339,㈜서울에너지 궁동주유소,구로구,02-860-2998,공중,정시(06:00~24:00),주유소및충전소, ,손건조기1, , , , 
340,서울특별시 구로구 경인로 41,서울특별시 구로구 온수동 35-3,126.8266855,37.49098752,씨앤에스유통㈜ 구로드림주유소,구로구,02-860-2998,공중,상시,주유소및충전소, , , , , , 
341,서울특별시 구로구 경인로 290,서울특별시 구로구 개봉동 226-1,126.852318,37.49763961,지에스칼텍스㈜ 개봉동주유소,구로구,02-860-2998,공중,정시(04:00~01:00),주유소및충전소, , , , , , 
342,서울특별시 구로구 연동로 191-19,서울특별시 구로구 항동 243-1,126.8222837,37.47904356,항동주민센터,구로구, , , , , , , , , , 
343,서울특별시 종로구 대학로 130,서울특별시 종로구 동숭동 1-34,127.0021011,37.5828849,맥도날드(대학로),종로구,02-2148-2383,민간개방,정시(07:00~01:00),민간, , , , , , 
344,서울특별시 송파구 위례순환로 478,서울특별시 송파구 장지동 904-2,127.1340964,37.47750701,센트라포레,송파구,02-2147-3283,민간개방,24시간 상시 개방,상가,"남성용(대변기 22, 소변기 22), 여성용(대변기 22)", ,CCTV 1대, ,송파구 위례순환로 478, 
345,서울특별시 송파구 백제고분로7길 33,서울특별시 송파구 잠실동 182-4,127.0826365,37.51093243,전주설렁탕,송파구,02-2147-3283,민간 개방,24시간 상시 개방,음식점,"남성용(대변기1, 소변기2), 여성용(대변기1)", , , ,송파구 백제고분로7길 33, 
346,서울특별시 송파구 가락로16길 2-13,서울특별시 송파구 석촌동 275-3,127.1078912,37.50075247,해도듦제주포크,송파구,02-2147-3283,민간개방,정시(10~22사),식당,"남성용(대변기1, 소변기1), 여성용(대변기1)", , , ,가락로16길 2-13, 
347,서울특별시 송파구 중대로25길 10-1,서울특별시 송파구 오금동 48-12,127.1279818,37.50348999,서일빌딩,송파구,02-2147-3283,민간개방,24시간 개방,업무시설,"남성용(대변기1, 소변기1), 여성용(대변기1)", , , ,송파구 중대로25길 10-1, 
348,서울특별시 송파구 오금로35길 17,서울특별시 송파구 오금동 44,127.1262654,37.50452113,오금현대아파트상가,송파구,02-2147-3283,민간개방,정시(07-23시),상가, , , , , ,화장실정보관련 문의: 송파구청 청소행정과 02-2147-3283
349,서울특별시 송파구 오금로 512,서울특별시 송파구 거여동 27-5,127.1455267,37.49275012,겨여쌍용2차아파트,송파구,02-2147-3283,민간개방화장실,정시(06~24시),주상복합아파트 상가,"남성용(대변기 4, 소변기4), 여성용(대변기 8)", , , ,송파구 오금로 512, 
350,서울특별시 송파구 백제고분로 162,서울특별시 송파구 잠실동 314-10,127.0847584,37.50498643,대양빌딩,송파구,02-2147-3283,민간개방화장실,24시간 상시 개방,업무시설,"남성용(대변기1, 소변기1), 여성용(대변기1)", , , ,송파구 백제고분로 162, 
351,서울특별시 송파구 백제고분로18길 4,서울특별시 송파구 잠실동 314-14,127.0847621,37.50483997,우천빌딩,송파구,02-2147-3283,민간개방화장실,24시간 개방,업무시설,"남성용(대변기1, 소변기1), 여성용(대변기 1)", , , ,송파구 백제고분로18길 4, 
352,서울특별시 송파구 송파나루길 166,서울특별시 송파구 신천동 32,127.1077043,37.5121541,더갤러리호수 화장실,송파구,02-2147-3380,공중,상시,공원, , , , , , 
354,서울특별시 구로구 경인로15길 113,서울특별시 구로구 오류동 산 5-84,126.8352773,37.49838942,온수근린공원(텃골지구),구로구, , , , , , , , , , 
355,서울특별시 구로구 고척로3길 86-15,서울특별시 구로구 오류동 산 5-47,126.8370395,37.49852495,온수근린공원(문학지구),구로구, , , , , , , , , , 
356,서울특별시 구로구 천왕로1길 59,서울특별시 구로구 천왕동 173,126.8341849,37.48253412,천왕골생태공원,구로구, , , , , , , , , , 
357,서울특별시 구로구 고척로21라길 8-7,서울특별시 구로구 개봉동 1-13,126.8442233,37.5054756,참새소공원,구로구, , , , , , , , , , 
358,서울특별시 구로구 부일로1길 58-3,서울특별시 구로구 온수동 산 10-4,126.8193778,37.49328625,온수체육공원,구로구, , , , , , , , , , 
359,서울특별시 구로구 개봉로2길 4,서울특별시 구로구 개봉동 372-1,126.8567969,37.4859268,목감천(개봉교),구로구, , , , , , , , , , 
360,서울특별시 양천구 중앙로17길 52,서울특별시 양천구 신정동 산 102,126.8561646,37.50951624,계남근린공원,양천구, , , , , , , , , , 
361,서울특별시 구로구 중앙로15길 72,서울특별시 구로구 고척동 339-4,126.8558636,37.50702124,덕의근린공원,구로구, , , , , , , , , , 
362,서울특별시 구로구 안양천동자전거길 643-1,서울특별시 양천구 신정동 871-25,126.8736739,37.50515095,안양천 가족화장실,양천구, , , , , , , , , , 
363,서울특별시 구로구 안양천동자전거길 643,서울특별시 양천구 신정동 871-11,126.8737013,37.50524574,안양천 물놀이장,양천구, , , , , , , , , , 
364,서울특별시 구로구 도림천서자전거길 158,서울특별시 구로구 신도림동 329-1,126.8886386,37.51203794,도림교옆,구로구, , , , , , , , , , 
365,서울특별시 구로구 안양천로 642,서울특별시 구로구 고척동 60-1,126.8709055,37.50438586,좌안파크골프장제방,구로구, , , , , , , , , , 
366,서울특별시 구로구 구로동로26길 54,서울특별시 구로구 구로동 741-27,126.8865665,37.48973335,남구로시장,구로구, , , , , , , , , , 
367,서울특별시 구로구 공원로 62,서울특별시 구로구 구로동 50,126.8895207,37.50228423,거리공원(2구역),구로구, , , , , , , , , , 
368,서울특별시 종로구 삼일대로 451,서울특별시 종로구 경운동 70,126.9866197,37.57471637,라이온스 빌딩,종로구,02-733-3097,민간개방1,정시(05:00-22:00) 토요일(05:00-14:00) 일요일폐쇄,빌딩, , , , , , 
369,서울특별시 종로구 이화장길 36-2,서울특별시 종로구 이화동 90-5,127.004563,37.57673192,베드로빌딩 개방화장실,종로구, ,민간개방,정시(09:30~21:00),빌딩, , , , , , 
370,서울특별시 종로구 창덕궁길 19,서울특별시 종로구 원서동 181,126.9889176,37.57843045,원서공원 공중화장실,종로구, ,공중화장실,상시(연중무휴),공원, , , , , , 
371,서울특별시 종로구 종로 33,서울특별시 종로구 청진동 70,126.9814425,37.57069171,월드그랑서울 개방화장실,종로구, ,민간개방,상시,빌딩, , , , , , 
372,서울특별시 종로구 북촌로12길 5-12,서울특별시 종로구 가회동 11-39,126.9854767,37.58232649,북촌발효공방(빛담),종로구, ,민간개방,"정시 평일,토,일(11:00~17:00) 월,화 휴관",공방, , , , , , 
373,서울특별시 종로구 계동6길 12,서울특별시 종로구 계동 2-31,126.9873201,37.58281053,목공예공방,종로구,02-2148-2383,민간개방1,"정시(평일 10:00~17:00), 일,월 휴관",체험공방, , , , , , 
374,서울특별시 종로구 새문안로5가길 32,서울특별시 종로구 적선동 122-1,126.9735287,37.57489929,한국생산성본부(1층),종로구,02-724-1275,공공개방,"정시 평일(09:00~18:00) 토,일 휴관",공용시설, , , , , , 
375,서울특별시 종로구 북촌로 35,서울특별시 종로구 가회동 156,126.9847742,37.580045,가회동주민센터( 남1층/여1층),종로구,02-2148-5211,공공개방,상시,공공청사, , , , , , 
376,서울특별시 종로구 세종대로 198,서울특별시 종로구 세종로 82-1,126.9781626,37.5737684,대한민국역사박물관(1층),종로구,02-3703-9200,공공개방,"정시 월화목금일(10:00~18:00) 수,토(10:00~21:00) 휴관일: 1월1일, 설날당일, 추석당일",공용시설, , , , , , 
377,서울특별시 종로구 북촌로11가길 14,서울특별시 종로구 가회동 31-69,126.9840385,37.58228697,직물놀이공방 개방화장실,종로구, ,민간개방,"정시(11:00~18:00) 일,월 휴관",공방, , , , , , 
378,서울특별시 종로구 북촌로12길 17,서울특별시 종로구 가회동 11-103,126.9856384,37.58213324,색실문양누비공방,종로구,02-741-0466,민간개방1,"정시(10:00-18:00) 일,화 휴관",박물관, , , , , , 
379,서울특별시 종로구 북촌로5길 19-12,서울특별시 종로구 재동 33,126.984196,37.57895719,홍염장 공방 개방화장실,종로구, ,민간개방,정시(10:00~17:00) 월 휴관,공방, , , , , , 
380,서울특별시 종로구 윤보선길 57,서울특별시 종로구 안국동 27,126.9832721,37.5783639,안동교회 개방화장실,종로구, ,민간개방,상시,종교시설, , , , , , 
381,서울특별시 종로구 계동길 81,서울특별시 종로구 계동 74-1,126.9866318,37.58100421,계동교회,종로구,02-763-1806,민간개방1,상시,종교시설, , , , , , 
382,서울특별시 종로구 종로 1,서울특별시 종로구 세종로 119,126.9778703,37.57094561,교보문고,종로구,02-1544-1900,민간,정시(06:00~23:00), , , , , , , 
383,서울특별시 종로구 종로17길 45,서울특별시 종로구 낙원동 243-3,126.9881431,37.57220727,경동빌딩(스타이발관) 개방화장실,종로구, ,민간개방,정시(09:00~18:00),이발소, , , , , , 
384,서울특별시 종로구 인사동길 44,서울특별시 종로구 관훈동 38,126.9848602,37.57425703,"쌈지길(지상1,2층)",종로구,02-736-0088,민간개방1,정시 연중무휴(10:30-20:30),상가, , , , , , 
385,서울특별시 종로구 인사동길 44,서울특별시 종로구 관훈동 38,126.9848602,37.57425703,쌈지길(지하1층),종로구,02-736-0088,민간개방1,정시 연중무휴(10:30-20:30),상가, , , , , , 
386,서울특별시 종로구 인사동5길 25,서울특별시 종로구 인사동 194-4,126.9853768,37.57209155,하나로빌딩,종로구,02-2003-7777,민간개방1,"정시 평일,토(05:00-21:00) 일 휴관",빌딩,"남1,여1", , , , , 
387,서울특별시 종로구 종로 115,서울특별시 종로구 종로3가 10,126.9904882,37.57060199,맥도날드(종로3가),종로구,02-2148-2383,민간개방,정시(07:00~22:00), , , , , , , 
388,서울특별시 종로구 인사동길 29,서울특별시 종로구 관훈동 197-4,126.9858001,37.57324105,인창빌딩,종로구,02-733-3009,민간개방1,정시(05:00-24:00),빌딩, , , , , , 
389,서울특별시 종로구 종로 94,서울특별시 종로구 종로2가 56-23,126.988109,37.56994874,버거킹(종로점),종로구,02-2148-2383,민간개방,정시(09:00~24:00), , , , , , , 
390,서울특별시 종로구 청계천로 71,서울특별시 종로구 관철동 32-7,126.9854846,37.56878076,계원빌딩,종로구,02-736-3277,민간개방1,정시(06:00-22:30),빌딩, , , , , , 
391,서울특별시 종로구 인사동길 6,서울특별시 종로구 인사동 43-2,126.9873568,37.57147775,남인사마당 개방화장실(지하1층),종로구,02-730-7282,공공개방,"정시07:00~23:00(평일,주말 동일)",공용시설, , , , , , 
392,서울특별시 종로구 종로 55,서울특별시 종로구 관철동 291-2,126.9832242,37.57020887,종각역,종로구,02-6110-1311,공공개방,"정시 평일(05:00-익일01:00) 토,일,공휴일(05:00~24:00) ",지하철,"남1,여1",기저귀교환대2유아용보호의자0비상벨11손건조기6, , , , 
393,서울특별시 종로구 삼일대로 467,서울특별시 종로구 경운동 90-3,126.9859614,37.57596341,서울노인복지센터,종로구,02-6220-8500,공공개방,"정시 평일(14:00~18:00) 토(09:00~15:00) 일,공휴일 휴관", , , , , , , 
394,서울특별시 종로구 북촌로5길 48,서울특별시 종로구 화동 2,126.9831628,37.5795445,북촌마을안내소 공중화장실,종로구, ,공중화장실,"정시 평일,토,일,공휴일(07:30~21:00)",안내소, , , , , , 
395,서울특별시 종로구 세종대로 172,서울특별시 종로구 세종로 1-68,126.9768451,37.5718842,광화문 해치마당(1층),종로구,02-2133-8508,공공개방,"정시 평일(05:00~익일01:00) 토,일,공휴일(05:00~24:00)",공용시설, , , , , , 
396,서울특별시 종로구 세종대로 172,서울특별시 종로구 세종로 1-68,126.976768,37.57165393,광화문역,종로구,02-901-6778,공공개방,"정시 평일(05:00-익일01:00) 토,일,공휴일(05:00~24:00)",지하철,2,기저귀교환대2유아용보호의자1손건조기3, , , , 
397,서울특별시 종로구 종로1길 45,서울특별시 종로구 세종로 76-14,126.9783347,37.57466647,의정부지 역사유적광장 화장실,종로구,02-3783-5950,공중,상시,공원, ,"비상벨, 손건조기", , , , 
398,서울특별시 구로구 천왕로1길 59,서울특별시 구로구 천왕동 173,126.8342032,37.48253648,천왕골생태공원,구로구, , , , , , , , , , 
399,서울특별시 구로구 새말로 117-23,서울특별시 구로구 구로동 2-17,126.8913739,37.50769741,신도림 오페라하우스,구로구, , , , , , , , , , 
400,서울특별시 구로구 벚꽃로 392,서울특별시 구로구 구로동 391-1,126.8804782,37.48918668,솔길어린이공원,구로구, , , , , , , , , , 
401,서울특별시 광진구 구의강변로3길 31,서울특별시 광진구 구의동 590-3,127.0903199,37.53619759,좋은교회,광진구,02-450-1375,민간개방1,상시개방,종교시설,"남1, 여1", , , , , 
402,서울특별시 금천구 시흥대로 81,서울특별시 금천구 시흥동 983,126.9028038,37.44119259,대득에너지(금천셀프주유소),금천구,02-2627-1532,공중,상시,주유소및충전소, , , , , , 
403,서울특별시 금천구 독산로 147,서울특별시 금천구 시흥동 860-36,126.9044302,37.46050054,형제주유소,금천구,02-2627-1532,공중,정시(05:00~23:00),주유소및충전소, , , , , , 
404,서울특별시 금천구 시흥대로 118,서울특별시 금천구 시흥동 939-4,126.9042858,37.44454686,일신주유소,금천구,02-2627-1532,공중,정시(06:00~24:00),주유소및충전소, ,손건조기 2, , , , 
405,서울특별시 금천구 시흥대로 484,서울특별시 금천구 독산동 967,126.8992265,37.47679044,㈜태영유업,금천구,02-2627-1532,공중,상시,주유소및충전소, , , , , , 
406,서울특별시 금천구 범안로 1155,서울특별시 금천구 독산동 1001-5,126.8900225,37.46687932,동남주유소,금천구,02-2627-1532,공중,정시(06:00~23:00),주유소및충전소, , , , , , 
407,서울특별시 금천구 시흥대로 492,서울특별시 금천구 독산동 954,126.8992275,37.47755884,삼주물산,금천구,02-2627-1477,민간개방1,정시,빌딩, , , , , , 
408, ,서울특별시 금천구 독산동  산 118-4,126.9088804,37.46785042,금천체육공원 화장실,금천구,02-2627-1653,공중,상시,공원, ,"기저귀교환대, 비상벨, 손건조기", , , , 
409,서울특별시 금천구 독산로72길 86-5,서울특별시 금천구 독산동 917,126.9064208,37.46949724,호암노인종합복지관화장실,금천구,02-2627-1392,공공개방,정시(09:00~18:30),공용시설,"별도장애인실 남2,여1","비상벨2, 손건조기8", , , , 
410,서울특별시 금천구 시흥대로51길 93-32,서울특별시 금천구 시흥동 558-1,126.8977906,37.45014878,금천노인종합복지관화장실,금천구,02-2627-1394,공공개방,정시(09:00~18:00),공용시설,공용시설 6,"비상벨6, 손건조기8", , , , 
411,서울특별시 금천구 남부순환로 1366,서울특별시 금천구 독산동 951,126.9027223,37.47936371,관악농협,금천구,02-2627-1477,민간개방1,정시,빌딩, , , , , , 
412,서울특별시 금천구 탑골로 2,서울특별시 금천구 시흥동 251-3,126.9102145,37.45078124,농협금천지점,금천구,02-2627-1477,민간개방1,정시,빌딩, , , , , , 
738,서울특별시 영등포구 당산로 77,서울특별시 영등포구 당산동2가 45-9,126.8952609,37.52173047,태창빌딩,영등포구,02-2633-7287,민간개방1,업무시간,빌딩, , , , , , 
413,"서울특별시 금천구 시흥대로 46, 9동 (시흥동, 중앙철재종합상가)",서울특별시 금천구 시흥동 965-1,126.9035691,37.43635494,다목적광장 화장실,금천구,02-2627-1655,공중,정시(09:00~18:00),공원,공용시설 1,비상벨1, , , , 
414, ,서울특별시 금천구 독산동  374,126.9087734,37.4675737,금천체육공원1 화장실,금천구,02-2627-1653,공중,상시,공원, , , , , , 
415,"서울특별시 금천구 호암로 278, B동 (시흥동, 약사전,요사체,삼성각)",서울특별시 금천구 시흥동 234,126.925337,37.45252797,호압사 화장실,금천구,02-2627-1664,공중,상시,공원,"남1,여1", , , , , 
416,서울특별시 금천구 독산로54길 6,서울특별시 금천구 시흥동 산 138-3,126.90741,37.46352957,산기슭공원 화장실,금천구,02-2627-1653,공중,상시,공원,"남1,여1","기저귀교환대, 비상벨", , , , 
417,서울특별시 금천구 금하로 689-2,서울특별시 금천구 시흥동 836,126.9069779,37.45209915,은행나무 공원 화장실,금천구,02-2627-1654,공중,상시,공원, ,"비상벨1, 손건조기 1", , , , 
418,서울특별시 금천구 남부순환로 1274,서울특별시 금천구 가산동 142-62,126.8921765,37.47862638,성부주유소,금천구,02-2627-1532,공중,상시,주유소및충전소, , , , , , 
419,서울특별시 금천구 독산로 179,서울특별시 금천구 독산동 1043-51,126.903381,37.46311177,독산주유소,금천구,02-2627-1532,공중,상시,주유소및충전소, ,손건조기 1, , , , 
420,서울특별시 금천구 시흥대로59길 9,서울특별시 금천구 시흥동 992-7,126.9005379,37.45344312,스탠다드 오일 시흥주유소,금천구,02-2627-1532,공중,상시,주유소및충전소, ,손건조기 1, , , , 
421,서울특별시 금천구 시흥대로 39-7,서울특별시 금천구 시흥동 980,126.9024462,37.4372112,SK네트웍스㈜ 박미주유소,금천구,02-2627-1532,공중,상시,주유소및충전소, ,손건조기 2, , , , 
422,서울특별시 금천구 시흥대로 125,서울특별시 금천구 시흥동 984-2,126.9032184,37.44530139,문화주유소,금천구,02-2627-1532,공중,정시(06:00~24:00),주유소및충전소, ,손건조기 2, , , , 
423,서울특별시 금천구 남부순환로 1410,서울특별시 금천구 독산동 900-4,126.9074813,37.48019897,SK네트웍스㈜ 순환도로주유소,금천구,02-2627-1532,공중,정시(07:00~23:00),주유소및충전소, ,손건조기 2, , , , 
424,서울특별시 금천구 시흥대로 282,서울특별시 금천구 독산동 1077-3,126.8993735,37.45891111,백운주유소,금천구,02-2627-1532,공중,정시(05:00~24:00),주유소및충전소, , , , , , 
425,서울특별시 금천구 시흥대로 174,서울특별시 금천구 시흥동 904,126.9029324,37.44953661,백산주유소,금천구,02-2627-1532,공중,정시(06:00~23:00),주유소및충전소, , , , , , 
426,서울특별시 금천구 독산로 257,서울특별시 금천구 독산동 195-2,126.902399,37.46983797,남서울주유소,금천구,02-2627-1532,공중,정시(05:00~24:30),주유소및충전소, , , , , , 
427,서울특별시 금천구 독산로 77,서울특별시 금천구 시흥동 841-16,126.9057369,37.45433563,금천주유소,금천구,02-2627-1532,공중,정시(05:00~23:00),주유소및충전소, , , , , , 
428,서울특별시 금천구 범안로21길 14,서울특별시 금천구 독산동 292-14,126.897031,37.46723581,주식회사 명보에너지,금천구,02-2627-1532,공중,상시,주유소및충전소, , , , , , 
429,서울특별시 금천구 시흥대로 441,서울특별시 금천구 독산동 150-6,126.8978808,37.47314865,SK네트웍스㈜ 이가주유소,금천구,02-2627-1532,공중,상시,주유소및충전소, , , , , , 
430,서울특별시 금천구 가산디지털1로 186,서울특별시 금천구 가산동 459-11,126.8820214,37.48167417,재능빌딩(JEI PLATZ),금천구,02-2627-1477,민간개방1,정시,빌딩, , , , , , 
431,서울특별시 금천구 시흥대로 414,서울특별시 금천구 독산동 287-7,126.8985369,37.47055172,새울빌딩,금천구,02-2627-1477,민간개방1,정시,빌딩, , , , , , 
432,서울특별시 금천구 서부샛길 674,서울특별시 금천구 가산동 535-155,126.8752027,37.4820086,동광석유㈜ 구광주유소,금천구,02-2627-1532,공중,정시(05:00~10:30),주유소및충전소, , , , , , 
433,"서울특별시 금천구 금하로 750, 관악우방아파트105동",서울특별시 금천구 시흥동 1011,126.9136384,37.44906931,새마을금고 옆 화장실,금천구,02-2627-1477,민간개방,정시(09:00~16:00),빌딩, , , , , , 
434,서울특별시 동작구 사당로 196,서울특별시 동작구 사당동 248-5,126.9698779,37.48492807,거묵프리미엄상가,동작구,02-820-9142,민간개방1,정시(09:00~22:00),빌딩, , , , , , 
435,서울특별시 동작구 사당로 59,서울특별시 동작구 상도동 103-1,126.9613853,37.494905,금성주유소,동작구,02-820-9142,공중,상시(연중개방),주유소및충전소, , , , , , 
436,서울특별시 동작구 여의대방로 216,서울특별시 동작구 대방동 383-18,126.9229399,37.50582727,대방주유소,동작구,02-820-9142,공중,상시(연중개방),주유소및충전소, , , , , , 
437,서울특별시 동작구 흑석로 102,서울특별시 동작구 흑석동 224-7,126.9608459,37.50704692,중앙대학교병원,동작구,02-820-9142,민간개방,상시(연중개방),병원,"남2,여3",손건조기2, , , , 
438,서울특별시 동작구 노량진로 2,서울특별시 동작구 대방동 341-3,126.925767,37.51227222,CJ푸드빌빕스대방점,동작구,02-820-9142,민간개방1,정시(09:00~22:00),음식점, ,"기저귀교환대1,유야용보호의자2,손건조기2", , , , 
439,서울특별시 동작구 여의대방로44길 22,서울특별시 동작구 대방동 501-1,126.9264679,37.50839445,열림교회,동작구,02-820-9142,민간개방1,정시(09:00~22:00),종교시설, , , , , , 
440,서울특별시 동작구 동작대로27길 57,서울특별시 동작구 사당동 127-22,126.9790909,37.48805443,남일교회,동작구,02-820-9142,민간개방1,정시(09:00~22:00),종교시설, ,손건조기1, , , , 
441,서울특별시 동작구 동작대로 141,서울특별시 동작구 사당동 86-5,126.9819865,37.4893067,오송빌딩,동작구,02-820-9142,민간개방1,정시(09:00~22:00),빌딩, , , , , , 
442,서울특별시 동작구 상도로 226,서울특별시 동작구 상도동 29-4,126.9438709,37.50506304,현대자동차정비,동작구,02-820-9142,민간개방1,정시(09:00~22:00),빌딩, , , , , , 
443,서울특별시 동작구 노량진로 74,서울특별시 동작구 대방동 49-6,126.9331068,37.51270186,유한양행,동작구,02-820-9142,민간개방1,정시(09:00~18:00),빌딩,"남1,여1", , , , , 
444,서울특별시 동작구 상도로 74,서울특별시 동작구 대방동 406-5,126.9288218,37.49946661,동일석유㈜동주충전소,동작구,02-820-9142,공중,상시(연중개방),주유소및충전소, , , , , , 
445,서울특별시 동작구 동작대로 73,서울특별시 동작구 사당동 1007-47,126.9815204,37.48310605,현대오일뱅크㈜직영현대self(사당점),동작구,02-820-9142,공중,상시(연중개방),주유소및충전소, ,손건조기2, , , , 
446,서울특별시 동작구 상도로 139,서울특별시 동작구 상도동 190-1,126.9350655,37.50273332,sk네트워크㈜매일주유소,동작구,02-820-9142,공중,상시(연중개방),주유소및충전소, , , , , , 
447,서울특별시 동작구 상도로 403,서울특별시 동작구 상도동 121-21,126.9565043,37.49346969,현대오일뱅크㈜직영동작주유소,동작구,02-820-9142,공중,상시(연중개방),주유소및충전소, ,손건조기2, , , , 
485,서울특별시 동작구 노량진로 187,서울특별시 동작구 노량진동 153-18,126.946924,37.51364311,노량진119안전센터,동작구,02-820-9142,공공개방,상시(연중개방),공공청사,"남1,여1", , , , , 
486,서울특별시 동작구 노량진로 248,서울특별시 동작구 본동 150-1,126.9536403,37.5123603,흑석지구대(구.노들지구대),동작구,02-820-9142,공공개방,상시(연중개방),공공청사,"남1,여1", , , , , 
487,서울특별시 동작구 장승배기로20길 46-3,서울특별시 동작구 노량진동 225-57,126.943427,37.5087361,노량진 송학대,동작구,02-820-9142,공중,상시(연중개방),공원, , , , , , 
488,서울특별시 동작구 여의대방로22길 77,서울특별시 동작구 신대방동 361-2,126.9245033,37.49791838,서울동작우체국,동작구,02-820-9142,공공개방,"정시(09:00~18:00,평일만)",공공청사,"남1,여1", , , , , 
489,서울특별시 동작구 사당로28길 44,서울특별시 동작구 사당동 1021-45,126.97937,37.48078,사당지구대,동작구,02-820-9142,공공개방,상시(연중개방),공공청사, , , , , , 
490,서울특별시 동작구 상도로 369,서울특별시 동작구 상도동 424-1,126.9574465,37.49698808,서울숭실대우체국,동작구,02-820-9142,공공개방,"정시(09:00~18:00,평일만)",공공청사,"남1,여1",손건조기2, , , , 
491,서울특별시 동작구 흑석로 84,서울특별시 동작구 흑석동 236-26,126.958866,37.50688473,서울 중앙대 우체국,동작구,02-820-9142,공공개방,"정시(09:00~18:00,평일만)",공공청사,"남1,여1",손건조기2, , , , 
492,서울특별시 동작구 동작대로 19,서울특별시 동작구 사당동 1042-1,126.9809395,37.47830575,한국전력 남부지점,동작구,02-820-9142,공공개방,"정시(09:00~18:00,평일만)",공공청사,"남1,여1",손건조기2, , , , 
493,서울특별시 동작구 보라매로5길 28,서울특별시 동작구 신대방동  722,126.9198017,37.49283294,동작구민회관,동작구,02-820-9142,공공개방,정시(09:00~22:00),공용시설,"남1,여1","기저귀교환대1,손건조기2", , , , 
494,서울특별시 동작구 매봉로 37,서울특별시 동작구 상도1동 514,126.9509751,37.50682008,동작상도국주도서관,동작구,02-820-9142,공공개방,"정시(09:00~18:00,매주월요일,국경일제외)",공용시설,"남1,여1","기저귀교환대1,손건조기2", , , , 
495,서울특별시 동작구 여의대방로44길 39,서울특별시 동작구 대방동 23-176,126.9285212,37.51022471,노량진 공원관리사무소,동작구,02-820-9142,공중,상시(연중개방),공원,"남2,여2",손건조기2, , , , 
496,서울특별시 금천구 독산로54길 188,서울특별시 금천구 독산동 371-2,126.9070749,37.47027254,구민문화체육센터화장실,금천구,02-2627-1463,공공개방,정시(06:00~22:00),공용시설,"남1,여1","비상벨2, 손건조기8", , , , 
497,서울특별시 금천구 금하로30길 54,서울특별시 금천구 시흥동 산 84-7,126.9154187,37.44852786,금천청소년수련관 화장실 1층,금천구,02-803-1318,공공개방,상시,공용시설,"남1,여1", , , , , 
498,서울특별시 금천구 시흥대로 264,서울특별시 금천구 시흥동 870-18,126.89993,37.45722591,시흥중앙교회,금천구,02-802-8785,민간개방,정시,민간,"남1,여1", , , , , 
499,서울특별시 금천구 디지털로10길 9,서울특별시 금천구 가산동 60-8,126.8886649,37.47743078,현대아울렛내 화장실,금천구,02-2136-9600,민간개방,정시(10:30~21:30),상가(시장), ,"유아용보호의자 1, 손건조기2", , , , 
500,서울특별시 금천구 가산로 129,서울특별시 금천구 가산동 144-3,126.8917576,37.47688638,가산동주민센터내 화장실,금천구,02-2627-2501,공공개방,정시(09:00~18:00),공공청사,공용 1,"기저귀교환대1, 손건조기3", , , , 
501,서울특별시 금천구 시흥대로73길 70,서울특별시 금천구 시흥동 1020,126.8947989,37.45673301,금천구청 1층 화장실,금천구,02-2627-1003,공공개방,상시,공공청사,남1,"기저귀교환대1, 손건조기2", , , , 
502,서울특별시 금천구 독산로54길 288,서울특별시 금천구 독산동 산 10-2,126.9062076,37.47480983,독산테니스장화장실,금천구,02-2627-1463,공공개방,상시,공용시설, , , , , , 
503,서울특별시 금천구 독산로54길 129,서울특별시 금천구 독산동 938-5,126.9072653,37.46776499,독산배드민턴체육관화장실,금천구,02-2627-1463,공공개방,정시(06:00~22:30),공용시설, ,비상벨2, , , , 
504,서울특별시 금천구 벚꽃로 158-1,서울특별시 금천구 독산동 1000,126.8885132,37.46927194,독산축구장화장실,금천구,02-2627-1463,공공개방,정시(08:00~22:00),공용시설, , , , , , 
505,서울특별시 금천구 금하로14길 20,서울특별시 금천구 시흥동 892-15,126.9042843,37.45263118,금빛휘트니스센터화장실,금천구,02-2627-1463,공공개방,정시(06:00~22:00),공용시설, ,"비상벨2, 손건조기2", , , , 
506,서울특별시 금천구 시흥대로73길 70,서울특별시 금천구 시흥동 1020,126.8947989,37.45673301,금나래아트홀 화장실,금천구,02-2627-1445,공공개방,정시(09:00~18:00),공공청사,공용시설 1,"비상벨1, 손건조기2", , , , 
507,서울특별시 금천구 서부샛길 724,서울특별시 금천구 가산동 535-8,126.8746822,37.48445256,광명대교(8호),금천구,02-2627-1862,공중,상시,공원, , , , , , 
508,서울특별시 금천구 금하로 594,서울특별시 금천구 시흥동 996,126.8976598,37.45301588,시흥대교(2호),금천구,02-2627-1862,공중,상시,공원, , , , , , 
509,서울특별시 금천구 시흥대로 314,서울특별시 금천구 독산동 1059-1,126.8983907,37.46161891,중앙에너비스㈜ 삼중가스지점,금천구,02-2627-1533,공중,상시,주유소및충전소, ,손건조기 2, , , , 
510,"서울특별시 금천구 시흥대로 53, 10동 (시흥동, 현대빌라)",서울특별시 금천구 시흥동 982,126.9021104,37.43976303,기아대교(1호),금천구,02-2627-1862,공중,상시,공원, , , , , , 
511,서울특별시 금천구 시흥대로63길 91,서울특별시 금천구 시흥동 113-55,126.8942847,37.45578139,금천구청(3호),금천구,02-2627-1862,공중,상시,공원,"남1,여1", , , , , 
512,서울특별시 금천구 시흥대로73길 70,서울특별시 금천구 시흥동 1020,126.8947989,37.45673301,금천구청역 자전거보관소(4호),금천구,02-2627-1862,공중,상시,공원, , , , , , 
513,서울특별시 금천구 범안로 1126,서울특별시 금천구 가산동 687,126.8871072,37.4652644,금천교(5호),금천구,02-2627-1862,공중,상시,공원, , , , , , 
514,서울특별시 금천구 가산디지털1로 33-33,서울특별시 금천구 가산동 569-21,126.8846312,37.46846119,대륭테크노타운(6호),금천구,02-2627-1862,공중,상시,공원,"남1,여1", , , , , 
515,"서울특별시 금천구 서부샛길 572, 나동 (가산동, 우창주택)",서울특별시 금천구 가산동 547-44,126.8776303,37.47792978,철산교(7호),금천구,02-2627-1862,공중,상시,공원,"남1,여1", , , , , 
516,서울특별시 금천구 한내로 69-16,서울특별시 금천구 독산동 1090,126.8883437,37.45848757,한신아파트(9호),금천구,02-2627-1862,공중,상시,공원,"남1,여1", , , , , 
517,서울특별시 금천구 시흥대로38길 61,서울특별시 금천구 시흥동 937-2,126.9044225,37.44640785,금천문화회관,금천구,02-2627-1444,공공개방,정시(09:00~18:00),공용시설,"남1,여1", , , , , 
518,서울특별시 금천구 탑골로 22,서울특별시 금천구 시흥동 247-19,126.9116235,37.45180328,금천마을예술창작소 어울샘,금천구,02-2627-1444,공공개방,정시(10:00~19:00),공용시설, , , , , , 
519,서울특별시 금천구 두산로 71,서울특별시 금천구 독산동 295-10,126.8956833,37.47051451,래미어린이극장 화장실,금천구,02-2627-1445,공공개방,정시(10:00~16:00),공용시설, ,손건조기 1, , , , 
520,서울특별시 금천구 벚꽃로56길 174,서울특별시 금천구 가산동 139-2,126.8880389,37.47992643,가산파출소내 화장실,금천구,02-864-0113,공공개방,상시,공공청사,공용1, , , , , 
521,서울특별시 금천구 가산로 151,서울특별시 금천구 가산동 140-7,126.8902241,37.47860209,가산농협내 화장실,금천구,02-869-8077,민간개방,정시(08:00~20:00),민간, ,"기전귀교환대1, 손건조기 3", , , , 
522,서울특별시 금천구 디지털로 200,서울특별시 금천구 가산동 60-51,126.8888992,37.47830343,우리은행내 화장실,금천구,02-857-9761,민간개방,정시(09:00~16:00),민간,공용1, , , , , 
562,서울특별시 금천구 독산로54길 188,서울특별시 금천구 독산동 371-2,126.9070749,37.47027254,문화체육센터,금천구,02-806-1313,공공개방,정시(06:00~22:00),공용시설, , , , , , 
563,서울특별시 금천구 시흥대로73길 70,서울특별시 금천구 시흥동 1020,126.8947989,37.45673301,금나래도서관,금천구,02-2627-2991,공공개방,정시(09:00~23:00),공용시설, , , , , , 
564,서울특별시 금천구 가산로5길 43,서울특별시 금천구 가산동 235-3,126.892118,37.47348843,가산도서관,금천구,02-865-6817,공공개방,정시(06:00~22:00),공용시설, , , , , , 
565,서울특별시 금천구 시흥대로37길 18,서울특별시 금천구 시흥동 985-26,126.9026357,37.44588441,공단본부,금천구,02-809-0061,공공개방,정시(09:00~18:00),빌딩, , , , , , 
566,서울특별시 금천구 시흥대로153길 53,서울특별시 금천구 가산동 148-28,126.8955649,37.47667571,가산동공영주차장,금천구,02-809-0061,공공개방,정시(09:00~21:00),교통시설, , , , , , 
567,서울특별시 금천구 독산로108길 44,서울특별시 금천구 독산동 898-24,126.9063257,37.47948669,독산3동공영주차장,금천구,02-809-0061,공공개방,정시(09:00~21:00),교통시설,공용시설 1, , , , , 
568,서울특별시 금천구 독산로107길 13,서울특별시 금천구 독산동 964,126.9027511,37.47788454,구룡공영주차장,금천구,02-809-0061,공공개방,상시,교통시설, , , , , , 
569,서울특별시 금천구 시흥대로150길 56,서울특별시 금천구 독산동 971,126.9018839,37.47638193,다목적공영주차장,금천구,02-809-0061,공공개방,상시,교통시설, , , , , , 
570,서울특별시 금천구 시흥대로28길 35-9,서울특별시 금천구 시흥동 942-6,126.9056912,37.44292248,시흥3동공영주차장,금천구,02-809-0061,공공개방,상시,교통시설, , , , , , 
571,서울특별시 금천구 독산로24마길 30,서울특별시 금천구 시흥동 171-1,126.9090159,37.45458943,삼성공영주차장,금천구,02-809-0061,공공개방,상시,교통시설,공용시설 1, , , , , 
572,서울특별시 금천구 독산로50마길 6,서울특별시 금천구 시흥동 3-129,126.9109376,37.46074256,효봉공영주차장,금천구,02-809-0061,공공개방,상시,교통시설, , , , , , 
573,서울특별시 금천구 독산로36나길 21,서울특별시 금천구 시흥동 704-56,126.9092872,37.45964271,신흥주차장,금천구,02-809-0061,공공개방,상시,교통시설, , , , , , 
574,서울특별시 금천구 가산디지털2로 169-34,서울특별시 금천구 가산동 614-34,126.876042,37.48330093,견인보관소,금천구,02-854-5264,공공개방,상시,교통시설, , , , , , 
575,서울특별시 금천구 독산로32다길 17,서울특별시 금천구 시흥동 812-41,126.9065443,37.45919749,시흥4동청소년독서실,금천구,02-894-6648,공공개방,정시(09:00~23:00),공용시설, , , , , , 
576,서울특별시 금천구 시흥대로138길 10-11,서울특별시 금천구 독산동 161-23,126.8992688,37.47216428,독산3동공영주차장,금천구,02-839-6931,공공개방,정시(09:00~23:00),교통시설, , , , , , 
577,서울특별시 금천구 시흥대로63길 91,서울특별시 금천구 시흥동 113-55,126.8942847,37.45578139,금천구청역,금천구,1544-7788,공공개방,정시,철도역, , , , , , 
578,서울특별시 금천구 벚꽃로 116,서울특별시 금천구 독산동 1003-20,126.8897956,37.46565868,독산역,금천구,1544-7788,공공개방,정시,철도역, , , , , , 
579,서울특별시 금천구 가산디지털1로 186,서울특별시 금천구 가산동 459-11,126.882412,37.48203216,가산디지털단지역,금천구,02-2639-3332,공공개방,정시,철도역,"남1,여1", , , , , 
580,서울특별시 금천구 가산로 129,서울특별시 금천구 가산동 144-3,126.8917576,37.47688638,가산종합사회복지관,금천구,02-2627-1353,공공개방,정시(09:00~21:00),공용시설,"남1,여1",비상벨1, , , , 
581,서울특별시 금천구 탑골로4길 50,서울특별시 금천구 시흥동 243-5,126.9141456,37.45088378,청담종합사회복지관,금천구,02-2627-1353,공공개방,정시(08:00~18:30),공용시설,여1,비상밸1, , , , 
582,서울특별시 영등포구 신길로61길 17,서울특별시 영등포구 영등포동 592-70,126.9093206,37.51466435,영등포본동주민센터,영등포구,02-2670-3503,공공개방,업무시간,공공청사,가능,0, , , , 
583,서울특별시 영등포구 영등포로53길 22,서울특별시 영등포구 영등포동2가 222-2,126.9106634,37.52034113,영등포동주민센터,영등포구,02-2670-3503,공공개방,업무시간,공공청사,가능,손건조기 2, , , , 
584,서울특별시 영등포구 국회대로 539,서울특별시 영등포구 당산동4가 93-5,126.8951049,37.52940381,국민연금공단 영등포지사,영등포구,02-2670-3503,공공개방,업무시간,공공청사, ,0, , , , 
585,서울특별시 영등포구 버드나루로 112,서울특별시 영등포구 당산동 121-103,126.9083134,37.52829295,영등포구선거관리위원회 화장실,영등포구,02-2670-3503,공공개방,업무시간,공공청사,가능,0, , , , 
586,서울특별시 영등포구 도신로 27,서울특별시 영등포구 대림동 608-2,126.8960612,37.50431571,대림도서관,영등포구,02-2670-3503,공공개방,업무시간,공용시설,가능,손건조기 8, , , , 
587,서울특별시 영등포구 문래로20길 49,서울특별시 영등포구 문래동3가 98,126.8908769,37.51685123,문래정보문화도서관,영등포구,02-2670-3503,공공개방,업무시간,공용시설,가능, , , , , 
588,서울특별시 영등포구 선유로43가길 10-8,서울특별시 영등포구 양평동3가 88-1,126.8929206,37.53332927,선유정보문화도서관,영등포구,02-2670-3503,공공개방,업무시간,공용시설,가능,손건조기 15, , , , 
589,서울특별시 영등포구 당산로 235,서울특별시 영등포구 당산동6가 305-4,126.9021384,37.53474342,당산2동주민센터,영등포구,02-2670-3503,공공개방,업무시간,공공청사,가능,손건조기2, , , , 
590,서울특별시 영등포구 여의대방로 227,서울특별시 영등포구 신길동 1155,126.9228829,37.50720133,한성주유소,영등포구,02-2670-3503,공중,업무시간,주유소및충전소, , , , , , 
591,서울특별시 영등포구 도림로 157,서울특별시 영등포구 대림동 710-12,126.8989785,37.49458873,대림주유소,영등포구,02-2670-3503,공중,업무시간,주유소및충전소, , , , , , 
592,서울특별시 영등포구 여의대방로43길 13,서울특별시 영등포구 신길동 893,126.9184001,37.50520508,본관화장실,영등포구,02-2670-3503,공공개방,업무시간,공공청사, ,0, , , , 
593,서울특별시 영등포구 영등포로84길 31,서울특별시 영등포구 신길동 454-11,126.9221748,37.51045577,신길119안전센터,영등포구,02-2670-3503,공공개방,업무시간,공공청사,가능,손건조기1, , , , 
594,서울특별시 영등포구 문래로 197,서울특별시 영등포구 영등포동4가 99,126.9039883,37.51842198,영등포소방서,영등포구,02-2670-3503,공공개방,업무시간,공공청사,가능,손건조기1, , , , 
595,서울특별시 영등포구 의사당대로 162,서울특별시 영등포구 여의도동 48-3,126.9278661,37.51722489,여의도119안전센터,영등포구,02-2670-3503,공공개방,업무시간,공공청사,가능,손건조기1, , , , 
596,서울특별시 영등포구 양평로 70-1,서울특별시 영등포구 당산동6가 339-7,126.8991831,37.53549067,당산119안전센터,영등포구,02-2670-3503,공공개방,업무시간,공공청사, ,손건조기1, , , , 
597,서울특별시 영등포구 도림로 212,서울특별시 영등포구 신길동 440-61,126.9040887,37.49733439,대림119안전센터,영등포구,02-2670-3503,공공개방,업무시간,공공청사,가능,손건조기1, , , , 
598,서울특별시 영등포구 여의대방로43길 13,서울특별시 영등포구 신길동 893,126.9203474,37.50555546,군지원센터화장실,영등포구,02-2670-3503,공공개방,업무시간,공공청사,가능,손건조기4, , , , 
599,서울특별시 영등포구 여의대방로43길 13,서울특별시 영등포구 신길동 893,126.9203474,37.50555546,서울지방병무청화장실,영등포구,02-2670-3503,공공개방,업무시간,공공청사, ,손건조기 2, , , , 
600,서울특별시 영등포구 여의대방로43길 13,서울특별시 영등포구 신길동 893,126.9197826,37.50622423,병무연수원,영등포구,02-2670-3503,공공개방,업무시간,공공청사, , , , , , 
523,서울특별시 금천구 디지털로9길 32,서울특별시 금천구 가산동 60-5,126.8874949,37.47951551,갑을그레이트밸리내 화장실,금천구,02-3397-7701,민간개방,상시,빌딩,"남1,여1","유아용보호의자 1, 손건조기6", , , , 
524,서울특별시 금천구 디지털로9길 23,서울특별시 금천구 가산동 60-52,126.8864706,37.47870296,마리오아울렛내 화장실,금천구,02-2109-7294,민간개방,상시,상가(시장), ,"유아용보호의자 2, 손건조기4", , , , 
525,서울특별시 금천구 디지털로 193,서울특별시 금천구 가산동 60-6,126.8877615,37.47901908,만승아울렛내 화장실,금천구,02-855-3431,민간개방,정시(09:30~22:00),상가(시장), , , , , , 
526,서울특별시 금천구 시흥대로58길 36,서울특별시 금천구 시흥동 886-6,126.9032352,37.45355033,시흥1동 주민센터,금천구,02-2104-5381,공공개방,정시,공공청사,"남1,여1", , , , , 
527,서울특별시 금천구 시흥대로51길 20,서울특별시 금천구 시흥동 992-44,126.8988376,37.45191112,홈플러스,금천구,02-808-4900,민간개방,정시,상가(시장),"남1,여1", , , , , 
528,서울특별시 금천구 금하로 763,서울특별시 금천구 시흥동 1013-7,126.9145611,37.45033786,금천종합복지타운 화장실 1층,금천구,02-2104-5413,공공개방,상시,공용시설,"남1,여1","비상벨1, 손건조기 1", , , , 
529,서울특별시 금천구 독산로 132,서울특별시 금천구 시흥동 803-17,126.9053211,37.45899001,하나은행 화장실,금천구,02-804-1111,민간개방,정시(09:00~15:00),민간, , , , , , 
530,서울특별시 금천구 시흥대로37길 18,서울특별시 금천구 시흥동 985-26,126.9026357,37.44588441,금천구시설공단,금천구,02-2104-5435,공공개방,정시(09:00-18::00),공공청사, , , , , , 
531,서울특별시 금천구 시흥대로18길 40,서울특별시 금천구 시흥동 956-3,126.9057809,37.44025665,시흥3동주민센터,금천구,02-2104-5435,공공개방,정시(09:00-18::00),공공청사, , , , , , 
532,서울특별시 금천구 독산로50길 23,서울특별시 금천구 시흥동 산 139-2,126.9064358,37.46355223,남부여성발전센터 화장실,금천구,02-802-0923,공공개방,정시(09:00~17:30),공공청사,"별도장애인실 남1,여1",손건조기 10, , , , 
533,"서울특별시 금천구 금하로 793, 116동 (시흥동, 벽산아파트)",서울특별시 금천구 시흥동 1010-13,126.9186031,37.45271325,벽산2단지 상가 화장실,금천구,02-808-7361,민간개방,정시(09:00~18:00),상가(시장),남1,손건조기 1, , , , 
534,"서울특별시 금천구 금하로 816, 504동 (시흥동, 벽산5단지아파트)",서울특별시 금천구 시흥동 1013,126.9189555,37.44763165,벽산5단지 상가 화장실,금천구,02-892-0316,민간개방,정시(09:00~18:00),상가(시장), , , , , , 
535,"서울특별시 금천구 금하로 793, 116동 (시흥동, 벽산아파트)",서울특별시 금천구 시흥동 1010-13,126.9186031,37.45271325,벽산1단지 상가 화장실,금천구,02-809-7336,민간개방,정시(09:00~18:00),상가(시장), ,손건조기 1, , , , 
536,서울특별시 금천구 독산로24길 39,서울특별시 금천구 시흥동 818-28,126.9080424,37.45540274,금천구 장애인연합회사무실 화장실,금천구,070-4210-0763,공공개방,정시(09:00~18:00),공공청사, , , , , , 
537,서울특별시 금천구 독산로36길 14,서울특별시 금천구 시흥동 812-38,126.9061628,37.45897135,시흥4동주민센터 화장실,금천구,02-2627-2519,공공개방,정시(08:00~21:00),공공청사,"별도장애인실 남1,여1",손건조기4, , , , 
538,"서울특별시 금천구 시흥대로 82, B동",서울특별시 금천구 시흥동 954-21,126.9039687,37.44108454,nh농협남시흥지점,금천구,02-2104-5435,민간개방,정시(09:00-18::00),빌딩, , , , , , 
539,서울특별시 금천구 시흥대로28길 35-9,서울특별시 금천구 시흥동 942-6,126.9056912,37.44292248,시흥3동공영주차장,금천구,02-2104-5435,공공개방,상시,교통시설, , , , , , 
540,서울특별시 금천구 시흥대로18길 65-4,서울특별시 금천구 시흥동 957-10,126.907482,37.44054458,박미사랑마을회관,금천구,02-2104-5435,공공개방,정시(06:00-22:00),공용시설,"별도장애인실 남1,여1", , , , , 
541,"서울특별시 금천구 시흥대로 97, F24동 (시흥동, 시흥유통상가)",서울특별시 금천구 시흥동 984,126.901043,37.4446815,시흥유통종합상가,금천구,02-2104-5435,민간개방,정시(09:00-22:00),상가(시장), , , , , , 
542,"서울특별시 금천구 시흥대로 46, 9동 (시흥동, 중앙철재종합상가)",서울특별시 금천구 시흥동 965-1,126.9035691,37.43635494,기업은행석수지점,금천구,02-2104-5435,민간개방1,정시(09:00-18::00),빌딩, , , , , , 
543,서울특별시 금천구 시흥대로 10,서울특별시 금천구 시흥동 967-1,126.9034009,37.43498249,하나은행시흥남지점,금천구,02-2104-5435,민간개방,정시(09:00-18::00),빌딩, , , , , , 
544,서울특별시 금천구 독산로50길 105,서울특별시 금천구 시흥동 3-83,126.9101545,37.46231289,백산지구대 화장실,금천구,02-805-0112,공공개방,상시,공공청사, , , , , , 
545,서울특별시 금천구 독산로 140-1,서울특별시 금천구 시흥동 802-34,126.9052054,37.45992394,새마을금고 화장실,금천구,02-891-1336,민간개방,정시(09:00~15:00),민간, , , , , , 
546,서울특별시 금천구 금하로24길 6,서울특별시 금천구 시흥동 910-5,126.90835,37.45072,시흥5동주민센터,금천구,02-2627-2521,공공개방,정시,공공청사, , , , , , 
547,서울특별시 금천구 금하로 705,서울특별시 금천구 시흥동 831-6,126.9083778,37.45164366,플라자 카멜리아,금천구,02-890-5015,민간개방,정시,상가(시장), , , , , , 
548,서울특별시 금천구 금하로 738,서울특별시 금천구 시흥동 271-51,126.9117267,37.44986609,범일운수,금천구,02-803-0111,민간개방,정시,교통시설, , , , , , 
549,서울특별시 금천구 금하로 720,서울특별시 금천구 시흥동 912-20,126.909436,37.45043378,에벤에셀프라자,금천구,02-809-9596,민간개방,정시,상가(시장), , , , , , 
550,서울특별시 금천구 시흥대로123길 11,서울특별시 금천구 독산동 289-5,126.8970259,37.47021889,독산1동 주민센터,금천구,02-2104-5235,공공개방,정시,공공청사, , , , , , 
551,서울특별시 금천구 범안로12가길 65,서울특별시 금천구 독산동 1006-94,126.8948,37.46494066,독산1동공영주차장,금천구,02-809-0061,공공개방,상시,교통시설, , , , , , 
552,서울특별시 금천구 독산로54길 114,서울특별시 금천구 독산동 375-2,126.9080458,37.46745856,독산도서관,금천구,02-863-9544,공공개방,정시(06:00~22:00),공용시설,공용시설 1, , , , , 
553,서울특별시 금천구 시흥대로 430,서울특별시 금천구 독산동 159-22,126.8986473,37.47181442,국민은행독산동지점,금천구,02-868-9103,민간개방,정시,민간, , , , , , 
554,서울특별시 금천구 시흥대로152길 11-43,서울특별시 금천구 독산동 953,126.9005771,37.47856374,삼부르네상스,금천구,02-856-1296,민간개방,정시,빌딩,별도장애인실 남1, , , , , 
555,서울특별시 금천구 독산로 293,서울특별시 금천구 독산동 1162,126.9028131,37.47303191,천지랜드,금천구,02-856-7644,민간개방,정시,민간, , , , , , 
556,서울특별시 금천구 범안로 1240-7,서울특별시 금천구 독산동 1035-13,126.8997467,37.46611495,독산2동주민센터,금천구,02-2627-2505,공공개방,정시(08:00~18:30),공공청사,공용 1, , , , , 
557,서울특별시 금천구 독산로 317,서울특별시 금천구 독산동 973-17,126.9031612,37.47516074,독산3동주민센터,금천구,02-2627-2507,공공개방,정시,공공청사,별도장애인실 남1,유아용보호의자 1, , , , 
558,서울특별시 금천구 시흥대로 488,서울특별시 금천구 독산동 954-4,126.8991941,37.47707632,혜전빌딩,금천구,02-861-3860,민간개방,정시,빌딩, , , , , , 
559,서울특별시 금천구 시흥대로 446,서울특별시 금천구 독산동 983-16,126.8987854,37.47330776,신한은행독산동금융센터,금천구,02-868-5500,민간개방,정시,민간, , , , , , 
560,서울특별시 금천구 남부순환로 1428,서울특별시 금천구 독산동 901-7,126.9094234,37.48057561,농협 문성지점,금천구,02-852-3121,민간개방,정시,민간, , , , , , 
561,서울특별시 금천구 독산로 232,서울특별시 금천구 독산동 1022,126.9021538,37.46755862,독산4동주민센터화장실,금천구,02-2627-2509,공공개방,정시(06:00~20:00),공공청사, , , , , , 
719,서울특별시 영등포구 영중로14길 27,서울특별시 영등포구 영등포동2가 335,126.9082846,37.51986609,영등포전통시장(구동부상가),영등포구,02-0634-1308,민간개방1,업무시간,상가(전통시장),가능, , , , , 
720,서울특별시 영등포구 영등포로 55,서울특별시 영등포구 양평동1가 245,126.8876784,37.52289396,삼환상가제중한의원,영등포구,02-2633-3357,민간개방,업무시간,병원, , , , , , 
721,서울특별시 영등포구 영등포로 103,서울특별시 영등포구 당산동2가 37,126.8931808,37.52206349,하나biz타워,영등포구,02-2635-1406,민간개방1,업무시간,빌딩, , , , , , 
722,서울특별시 영등포구 선유동2로 6,서울특별시 영등포구 당산동4가 93-6,126.8949686,37.52961029,동양웨딩홀,영등포구,02-2632-9000,민간개방1,업무시간,예식장, , , , , , 
723,서울특별시 영등포구 영신로 238,서울특별시 영등포구 영등포동8가 72,126.9041962,37.52855029,미소로빌딩,영등포구,02-3667-1237,민간개방1,업무시간,빌딩, , , , , , 
724,서울특별시 영등포구 당산로 122,서울특별시 영등포구 당산동3가 270,126.896918,37.52540588,우미빌딩,영등포구,02-2675-5257,민간개방1,업무시간,빌딩, , , , , , 
725,서울특별시 영등포구 영등포로 147,서울특별시 영등포구 당산동1가 53-1,126.8980919,37.5213851,당산빌딩,영등포구,02-2675-1291,민간개방1,업무시간,빌딩, , , , , , 
726,서울특별시 영등포구 영중로 170,서울특별시 영등포구 영등포동8가 87-4,126.9062885,37.53158484,한국소방안전협회,영등포구,02-2679-9745,민간개방1,업무시간,빌딩, , , , , , 
727,서울특별시 영등포구 대림로 212,서울특별시 영등포구 대림동 688-2,126.898129,37.49959455,광림빌딩,영등포구,02-844-9500,민간개방1,업무시간,빌딩, , , , , , 
728,서울특별시 영등포구 영중로 100,서울특별시 영등포구 영등포동7가 77-6,126.9061404,37.52504361,신화병원(2층),영등포구,02-2068-757,민간개방,업무시간,병원,가능, , , , , 
729,서울특별시 영등포구 영신로 136,서울특별시 영등포구 영등포동4가 160,126.9014671,37.51973436,건양병원(김안과병원),영등포구,1577-2639,민간개방,업무시간,병원,가능,손건조기2, , , , 
730,서울특별시 영등포구 영등포로 225,서울특별시 영등포구 영등포동5가 18-145,126.9066369,37.51991941,영신상가,영등포구,02-2634-6020,민간개방1,업무시간,상가(전통시장), , , , , , 
731,서울특별시 영등포구 영등포로 59,서울특별시 영등포구 양평동1가 190,126.8880448,37.5228801,엠에스 빌딩,영등포구,02-2678-4378,민간개방1,업무시간,빌딩, , , , , , 
732,서울특별시 영등포구 대림로 157,서울특별시 영등포구 대림동 710-10,126.8994428,37.4948714,일승빌딩,영등포구,02-831-5100,민간개방1,업무시간,빌딩, , , , , , 
733,서울특별시 영등포구 영중로 159,서울특별시 영등포구 영등포동8가 83-2,126.9054021,37.53056187,우송빌딩,영등포구,02-2675-5257,민간개방1,업무시간,빌딩, , , , , , 
734,"서울특별시 영등포구 당산로36길 12, 201동 (당산동4가, 당산2차삼성아파트)",서울특별시 영등포구 당산동4가 94-1,126.8977896,37.52807858,삼성ABC플라자,영등포구,02-2632-8748,민간개방,업무시간,빌딩, , , , , , 
735,서울특별시 영등포구 양평로 154,서울특별시 영등포구 양평동5가 50,126.8912188,37.53961529,영등포제일교회,영등포구,02-2678-3201,민간개방1,업무시간,종교시설, , , , , , 
736,서울특별시 영등포구 버드나루로 41,서울특별시 영등포구 영등포동2가 94-124,126.9111993,37.52221316,진흥빌딩,영등포구,02-2634-2221,민간개방1,업무시간,빌딩, , , , , , 
737,"서울특별시 영등포구 당산로 95, 107동 (당산동2가, 현대아파트)",서울특별시 영등포구 당산동2가 164-3,126.8953792,37.52317194,현대상가(지하1층),영등포구,02-2632-0467,민간개방,업무시간,상가(시장), , , , , , 
739,서울특별시 영등포구 영신로44길 22,서울특별시 영등포구 영등포동6가 36,126.9040329,37.52209433,영등포침례교회,영등포구,02-2633-9066,민간개방1,업무시간,종교시설, , , , , , 
740,서울특별시 영등포구 영등포로 21,서울특별시 영등포구 양평동2가 37-2,126.8840489,37.52351518,우리은행양평빌딩,영등포구,02-2677-8831,민간개방1,업무시간,빌딩, , , , , , 
741,서울특별시 영등포구 영등포로 20,서울특별시 영등포구 양평동2가 21,126.883503,37.52290538,우신빌딩,영등포구,02-2631-7954,민간개방1,업무시간,빌딩, , , , , , 
742,서울특별시 영등포구 선유로 250,서울특별시 영등포구 양평동4가 32-8,126.8972774,37.53477459,그랑드빌 오피스텔,영등포구,02-2675-7761,민간개방1,업무시간,빌딩,가능, , , , , 
743,서울특별시 영등포구 선유로 59,서울특별시 영등포구 문래동6가 5-2,126.8889288,37.5192285,문래아카데미,영등포구,02-2675-7700,민간개방1,업무시간,빌딩,가능, , , , , 
744,서울특별시 영등포구 국제금융로 106,서울특별시 영등포구 여의도동 53-1,126.9332751,37.5189674,행진빌딩,영등포구,02-780-6780,민간개방1,업무시간,빌딩, , , , , , 
745,서울특별시 영등포구 대림로 107,서울특별시 영등포구 대림동 1019-7,126.9023583,37.49095184,흰돌교회,영등포구,02-841-4452,민간개방1,업무시간,종교시설, , , , , , 
746,서울특별시 영등포구 경인로 862,서울특별시 영등포구 영등포동 489-18,126.9070337,37.51585092,영등포역 지하,영등포구,02-2290-6459,민간개방1,업무시간,상가(전통시장),가능,손건조기2, , , , 
747,서울특별시 영등포구 영등포로 194,서울특별시 영등포구 영등포동4가 147-1,126.9029376,37.52001779,홍익금융프라자,영등포구,02-2069-1618,민간개방1,업무시간,빌딩, , , , , , 
748,"서울특별시 영등포구 영등포로 106, 101동 (당산동2가, 대우아파트)",서울특별시 영등포구 당산동2가 16-1,126.8928442,37.52088207,메종리브로(2층),영등포구,02-2632-3021,민간개방1,업무시간,빌딩, , , , , , 
749,서울특별시 영등포구 영등포로 200,서울특별시 영등포구 영등포동4가 142,126.9035561,37.51988095,우리은행영등포중앙지점,영등포구,02-2678-7921,민간개방1,업무시간,빌딩,가능, , , , , 
750,서울특별시 영등포구 선유로 27,서울특별시 영등포구 문래동5가 2,126.887934,37.51662666,대륭빌딩,영등포구,02-2675-8154,민간개방1,업무시간,빌딩, , , , , , 
751,서울특별시 영등포구 경인로 870,서울특별시 영등포구 영등포동1가 143-3,126.9091482,37.51700419,삼보빌딩,영등포구,02-2678-2091,민간개방,업무시간,빌딩, , , , , , 
752,서울특별시 영등포구 대림로 178,서울특별시 영등포구 대림동 693-1,126.8993889,37.49670512,한경빌딩,영등포구,02-848-4493,민간개방1,업무시간,빌딩, , , , , , 
753,서울특별시 영등포구 가마산로 359,서울특별시 영등포구 대림동 665-10,126.8982318,37.50091427,베뢰아국제대학원,영등포구,02-831-2272,민간개방1,업무시간,빌딩, , , , , , 
754,서울특별시 영등포구 대림로 248,서울특별시 영등포구 대림동 651-7,126.896793,37.50276289,서울중앙교회,영등포구,02-831-8391,민간개방1,업무시간,종교시설, , , , , , 
755,서울특별시 영등포구 문래로 92,서울특별시 영등포구 문래동3가 77-13,126.8922193,37.51923779,대소빌딩,영등포구,02-2677-0830,민간개방1,업무시간,빌딩,가능, , , , , 
756,서울특별시 영등포구 신길로 132,서울특별시 영등포구 신길동 239-14,126.9108589,37.50387612,영신교회,영등포구,02-833-0653,민간개방1,업무시간,빌딩, , , , , , 
757,서울특별시 영등포구 신길로 162,서울특별시 영등포구 신길동 4902-7,126.9113486,37.50666025,삼성디지털(신길),영등포구,02-842-5270,민간개방,업무시간,빌딩, , , , , , 
758,서울특별시 영등포구 버드나루로14가길 14,서울특별시 영등포구 당산동 121-156,126.9096776,37.52653436,두레교회,영등포구,02-2635-8390,민간개방1,업무시간,종교시설, , , , , , 
601,서울특별시 영등포구 여의대방로43길 13,서울특별시 영등포구 신길동 893,126.9184001,37.50520508,검사장화장실,영등포구,02-2670-3503,공공개방,업무시간,공공청사, , , , , , 
602,서울특별시 영등포구 여의대방로43길 13,서울특별시 영등포구 신길동 893,126.9184001,37.50520508,민원봉사실화장실,영등포구,02-2670-3503,공공개방,업무시간,공공청사,가능, , , , , 
603,서울특별시 영등포구 영등포로 168,서울특별시 영등포구 당산동1가 5-5,126.9000444,37.52048971,대일주유소,영등포구,02-2670-3503,공중,업무시간,주유소및충전소, , , , , , 
604,서울특별시 영등포구 버드나루로 111,서울특별시 영등포구 당산동 121-106,126.9078531,37.52801756,버드나룻길주유소,영등포구,02-2670-3503,공중,업무시간,주유소및충전소, , , , , , 
605,"서울특별시 영등포구 시흥대로 595, 101동 (대림동, H HOUSE 대림 뉴스테이)",서울특별시 영등포구 대림동 1126,126.9035231,37.48603909,㈜안국에너지 동신주유소,영등포구,02-2670-3503,공중,업무시간,주유소및충전소, , , , , , 
606,서울특별시 영등포구 가마산로 328,서울특별시 영등포구 대림동 776-3,126.8957405,37.49854699,대청주유소,영등포구,02-2670-3503,공중,업무시간,주유소및충전소, , , , , , 
607,서울특별시 영등포구 도림로 343,서울특별시 영등포구 도림동 243-2,126.9002172,37.5077604,도림주유소,영등포구,02-2670-3503,공중,업무시간,주유소및충전소, ,손건조기1, , , , 
608,서울특별시 영등포구 도신로 151,서울특별시 영등포구 도림동 71,126.9082187,37.51002077,㈜강서오일,영등포구,02-2670-3503,공중,업무시간,주유소및충전소, ,손건조기1, , , , 
609,서울특별시 영등포구 경인로 789,서울특별시 영등포구 문래동3가 8-17,126.9008267,37.51475341,모드니주유소,영등포구,02-2670-3503,공중,업무시간,주유소및충전소, ,손건조기1, , , , 
610,서울특별시 영등포구 도림로 486,서울특별시 영등포구 문래동3가 76-3,126.8897997,37.51695778,한일주유소,영등포구,02-2670-3503,공중,업무시간,주유소및충전소, , , , , , 
611,서울특별시 영등포구 도신로 248,서울특별시 영등포구 신길동 100-10,126.9183126,37.51308965,매봉주유소,영등포구,02-2670-3503,공중,업무시간,주유소및충전소, , , , , , 
612,서울특별시 영등포구 여의대방로 145,서울특별시 영등포구 신길동 505,126.9199987,37.50030819,미림주유소,영등포구,02-2670-3503,공중,업무시간,주유소및충전소, , , , , , 
613,서울특별시 영등포구 여의대방로 159,서울특별시 영등포구 신길동 623,126.920523,37.50138029,대방주유소,영등포구,02-2670-3503,공중,업무시간,주유소및충전소, , , , , , 
614,서울특별시 영등포구 여의대방로35가길 19,서울특별시 영등포구 신길동 4958,126.9176183,37.50397411,신평화주유소,영등포구,02-2670-3503,공중,업무시간,주유소및충전소, , , , , , 
615,서울특별시 영등포구 가마산로 414,서울특별시 영등포구 신길동 355-547,126.9028487,37.5038233,㈜대림에너지,영등포구,02-2670-3503,공중,업무시간,주유소및충전소, , , , , , 
616,서울특별시 영등포구 신길로 74,서울특별시 영등포구 신길동 2579-33,126.9087115,37.49905406,GS칼텍스㈜ 직영 신길점,영등포구,02-2670-3503,공중,업무시간,주유소및충전소, ,손건조기1, , , , 
617,서울특별시 영등포구 신풍로 1,서울특별시 영등포구 신길동 426-3,126.9062863,37.50054288,영등포구민체육센터,영등포구,02-2650-1500,공공개방,업무시간,공공청사,가능,손건조기10, , , , 
618,서울특별시 영등포구 여의대방로 211,서울특별시 영등포구 신길동 869,126.9221739,37.50586505,공단본부,영등포구,02-2670-3503,공공개방,업무시간,공공청사,가능, , , , , 
619,서울특별시 영등포구 영등포로 399,서울특별시 영등포구 신길동 70-1,126.9227151,37.51353407,보라주유소,영등포구,02-2670-3503,공중,업무시간,주유소및충전소, , , , , , 
620,서울특별시 영등포구 여의대방로23길 2,서울특별시 영등포구 신길동 4214,126.919775,37.49839123,경덕주유소,영등포구,02-2670-3503,공중,업무시간,주유소및충전소, , , , , , 
621,서울특별시 영등포구 선유로 114,서울특별시 영등포구 양평동1가 104-1,126.8908291,37.52409145,삼미상사㈜ 영등포주유소,영등포구,02-2670-3503,공중,업무시간,주유소및충전소, , , , , , 
622,서울특별시 영등포구 선유로 270,서울특별시 영등포구 양평동4가 158,126.8988509,37.53623557,GS칼텍스㈜ 직영 기린점,영등포구,02-2670-3503,공중,업무시간,주유소및충전소, ,손건조기1, , , , 
623,서울특별시 영등포구 선유로 260,서울특별시 영등포구 양평동4가 28,126.8979368,37.53552992,제2한강주유소,영등포구,02-2670-3503,공중,업무시간,주유소및충전소, , , , , , 
624,서울특별시 영등포구 양평로 141,서울특별시 영등포구 양평동5가 37,126.8922043,37.53843775,양평주유소,영등포구,02-2670-3503,공중,업무시간,주유소및충전소, , , , , , 
625,서울특별시 영등포구 신길로 137,서울특별시 영등포구 신길동 253-333,126.9100599,37.5046087,세화주유소,영등포구,02-2670-3503,공중,업무시간,주유소및충전소, , , , , , 
626,서울특별시 영등포구 영등포로 348,서울특별시 영등포구 신길동 51-7,126.9169906,37.51532263,SK네트웍스㈜신길동주유소,영등포구,02-2670-3503,공중,업무시간,주유소및충전소, ,손건조기1, , , , 
627,서울특별시 영등포구 영중로 169,서울특별시 영등포구 영등포동8가 86,126.9053993,37.53150452,SK네트웍스㈜당산주유소,영등포구,02-2670-3503,공중,업무시간,주유소및충전소, ,손건조기1, , , , 
628,서울특별시 영등포구 대림로 230,서울특별시 영등포구 대림동 664-24,126.8974392,37.50129883,엠에스주유소,영등포구,02-2670-3503,공중,업무시간,주유소및충전소, , , , , , 
629,서울특별시 영등포구 가마산로 379,서울특별시 영등포구 대림동 667-9,126.8994876,37.50234721,SK네트웍스㈜ 윈윈주유소,영등포구,02-2670-3503,공중,업무시간,주유소및충전소, ,손건조기1, , , , 
630,서울특별시 영등포구 선유로 195,서울특별시 영등포구 양평동3가 80-2,126.8933919,37.53108149,SK네트웍스㈜ 양평주유소,영등포구,02-2670-3503,공중,업무시간,주유소및충전소, , , , , , 
631,서울특별시 영등포구 도림로 236,서울특별시 영등포구 신길동 433-75,126.9053167,37.49907237,하나주유소,영등포구,02-2670-3503,공중,업무시간,주유소및충전소, , , , , , 
632,서울특별시 영등포구 국회대로 665,서울특별시 영등포구 영등포동7가 94-160,126.9081102,37.52548425,GS칼텍스㈜ 직영 한양점,영등포구,02-2670-3503,공중,업무시간,주유소및충전소, , , , , , 
633,서울특별시 영등포구 은행로 64,서울특별시 영등포구 여의도동 10-1,126.9255602,37.5303746,GS칼텍스여의도주유소 개방화장실,영등포구,02-2670-3503,공중,업무시간,주유소및충전소, ,손건조기1, , , , 
634,서울특별시 영등포구 가마산로 367,서울특별시 영등포구 대림동 667-13,126.8988495,37.5016016,SK블루에너지,영등포구,02-2670-3503,공중,업무시간,주유소및충전소, , , , , , 
635,서울특별시 영등포구 디지털로 350,서울특별시 영등포구 대림동 1081-56,126.8995097,37.48881327,신대림주유소,영등포구,02-2670-3503,공중,업무시간,주유소및충전소, , , , , , 
636,서울특별시 영등포구 경인로112길 3,서울특별시 영등포구 영등포동1가 79-2,126.9133379,37.51842095,선익개발㈜ 영등포주유소,영등포구,02-2670-3503,공중,업무시간,주유소및충전소, , , , , , 
637,서울특별시 영등포구 도신로 130,서울특별시 영등포구 신길동 298-34,126.9062193,37.50861537,신풍주유소,영등포구,02-2670-3503,공중,업무시간,주유소및충전소, , , , , , 
638,서울특별시 영등포구 영등포로 115,서울특별시 영등포구 당산동2가 45,126.8945382,37.52179499,대지주유소,영등포구,02-2670-3503,공중,업무시간,주유소및충전소, , , , , , 
639,서울특별시 영등포구 선유로52길 5,서울특별시 영등포구 양평동4가 158,126.8992498,37.53603942,기린에너지,영등포구,02-2670-3503,공중,업무시간,주유소및충전소, ,손건조기1, , , , 
640,서울특별시 영등포구 선유로 155,서울특별시 영등포구 양평동3가 58-1,126.8911401,37.5280328,양평동충전소,영등포구,02-2670-3503,공중,업무시간,주유소및충전소, , , , , , 
641,서울특별시 영등포구 선유로 37,서울특별시 영등포구 문래동6가 1-3,126.8884715,37.51749296,(주)세지,영등포구,02-2670-3503,공중,업무시간,주유소및충전소, ,손건조기1, , , , 
642,서울특별시 영등포구 여의나루로 60,서울특별시 영등포구 여의도동 35-1,126.9263317,37.52232533,여의도우체국화장실,영등포구,02-2670-3503,공공개방,업무시간,공공청사,가능,0, , , , 
643,서울특별시 영등포구 경인로 841,서울특별시 영등포구 영등포동4가 425-2,126.9059742,37.51653511,영등포우체국화장실,영등포구,02-2670-3503,공공개방,업무시간,공공청사,가능,손건조기4, , , , 
644,서울특별시 영등포구 당산로 102,서울특별시 영등포구 당산동1가 309,126.8964204,37.52368518,당산동우체국화장실,영등포구,02-2670-3503,공공개방,업무시간,공공청사,가능, , , , , 
645,서울특별시 영등포구 영신로10길 15,서울특별시 영등포구 영등포동 592-10,126.9091442,37.51439647,영등포본동제1공영,영등포구,02-2670-3503,공공개방,업무시간,교통시설, , , , , , 
646,서울특별시 영등포구 국회대로54길 56,서울특별시 영등포구 영등포동2가 229,126.9101676,37.5209547,영등포동제1공영,영등포구,02-2670-3503,공공개방,업무시간,교통시설, , , , , , 
647,서울특별시 영등포구 선유로 243,서울특별시 영등포구 양평동4가 24,126.8955057,37.53494299,영등포세무서,영등포구,02-2670-3503,공공개방,업무시간,공공청사,가능, , , , , 
648,서울특별시 영등포구 신길로42길 1,서울특별시 영등포구 신길동 209-102,126.9112566,37.50845214,신길4동 주민센터,영등포구,02-2670-1299,공공개방,업무시간,공공청사,가능, , , , , 
649,서울특별시 영등포구 양산로23길 11,서울특별시 영등포구 당산동3가 259,126.8973517,37.52497703,당산1동 주민센터 청사,영등포구,02-2670-1452,공공개방,업무시간,공공청사,가능,손건조기2, , , , 
650,서울특별시 영등포구 문래로20길 49,서울특별시 영등포구 문래동3가 98,126.8908769,37.51685123,문래정보문화도서관,영등포구,02-2670-3503,공공개방,업무시간,공용시설,가능, , , , , 
651,서울특별시 영등포구 당산로 1,서울특별시 영등포구 문래동3가 60-2,126.8937873,37.51532408,견인차량보관소공영,영등포구,02-2670-3503,공공개방,업무시간,교통시설, , , , , , 
652,서울특별시 영등포구 신길로60길 34,서울특별시 영등포구 신길동 186-355,126.9140638,37.51332204,영등포본동제2공영,영등포구,02-2670-3503,공공개방,업무시간,교통시설, , , , , , 
653,서울특별시 영등포구 양평로20길 8-1,서울특별시 영등포구 양평동4가 172-1,126.8959146,37.53775285,양평2동 주민센터,영등포구,02-2670-1233,공공개방,업무시간,공공청사,가능,손건조기1, , , , 
654,서울특별시 영등포구 영등포로62길 13,서울특별시 영등포구 신길동 184-3,126.9153374,37.51538793,영등포여고공영,영등포구,02-2670-3503,공공개방,업무시간,교통시설, , , , , , 
655,서울특별시 영등포구 도림로47나길 13,서울특별시 영등포구 대림동 746-18,126.9004032,37.49800787,대림3동공영,영등포구,02-2670-3503,공공개방,업무시간,교통시설, , , , , , 
656,서울특별시 영등포구 신길로28길 12-6,서울특별시 영등포구 신길동 3409-1,126.9112889,37.5025322,신길6동공영,영등포구,02-2670-3503,공공개방,업무시간,교통시설, , , , , , 
657,서울특별시 영등포구 국회대로54길 21,서울특별시 영등포구 영등포동7가 29-124,126.9085523,37.52377576,영등포동제2공영,영등포구,02-2670-3503,공공개방,업무시간,교통시설, , , , , , 
658,서울특별시 영등포구 양산로 147,서울특별시 영등포구 당산동3가 6-1,126.8999899,37.52378687,당산1동공영,영등포구,02-2670-3503,공공개방,업무시간,교통시설, , , , , , 
659,서울특별시 영등포구 버드나루로19길 3,서울특별시 영등포구 당산동 121-17,126.9077713,37.5282357,당산2동공영,영등포구,02-2670-3503,공공개방,업무시간,교통시설, , , , , , 
660,서울특별시 영등포구 도신로15길 36,서울특별시 영등포구 도림동 226-13,126.896689,37.50829393,도림동공영,영등포구,02-2670-3503,공공개방,업무시간,교통시설, , , , , , 
661,서울특별시 영등포구 선유로5길 8,서울특별시 영등포구 문래동5가 3-4,126.887758,37.51630388,문래동공영,영등포구,02-2670-3503,공공개방,업무시간,교통시설, , , , , , 
662,서울특별시 영등포구 선유로47길 30,서울특별시 영등포구 양평동4가 96,126.8941014,37.53642577,양평2동공영,영등포구,02-2670-3503,공공개방,업무시간,교통시설, , , , , , 
663,서울특별시 영등포구 신길로 137,서울특별시 영등포구 신길동 252-9,126.909905,37.50423067,신길3동공영,영등포구,02-2670-3503,공공개방,업무시간,교통시설, , , , , , 
664,서울특별시 영등포구 가마산로 502,서울특별시 영등포구 신길동 236-10,126.9120085,37.50539458,신길4동공영,영등포구,02-2670-3503,공공개방,업무시간,교통시설, , , , , , 
665,서울특별시 영등포구 대림로22길 2,서울특별시 영등포구 대림동 834-1,126.9015983,37.49314268,대림1동공영,영등포구,02-2670-3503,공공개방,업무시간,교통시설, , , , , , 
869,서울특별시 금천구 시흥대로 421,서울특별시 금천구 독산동 288-1,126.8977257,37.47116196,건국빌딩,금천구,02-2627-1477,민간개방1,정시,빌딩, , , , , , 
666,서울특별시 영등포구 디지털로37나길 22,서울특별시 영등포구 대림동 1072-12,126.8999247,37.49160647,대림2동공영,영등포구,02-2670-3503,공공개방,업무시간,교통시설, , , , , , 
667,서울특별시 영등포구 경인로114가길 9,서울특별시 영등포구 영등포동1가 35,126.9142536,37.51763914,신길환승(5호선)공영,영등포구,02-2670-3503,공공개방,업무시간,교통시설, , , , , , 
668,서울특별시 영등포구 가마산로65길 22,서울특별시 영등포구 신길동 285-1,126.907106,37.50868021,도림초교공영,영등포구,02-2670-3503,공공개방,업무시간,교통시설, , , , , , 
669,서울특별시 영등포구 영중로 15,서울특별시 영등포구 영등포동4가 442,126.9036998,37.51723126,타임스퀘어공영,영등포구,02-2670-3503,공공개방,업무시간,교통시설,가능,손건조기4, , , , 
670,서울특별시 영등포구 선유로43가길 10-8,서울특별시 영등포구 양평동3가 88-1,126.8929206,37.53332927,선유정보문화도서관,영등포구,02-2670-3503,공공개방,업무시간,공용시설,가능,손건조기15, , , , 
671,서울특별시 영등포구 선유로 243,서울특별시 영등포구 양평동4가 24,126.8955057,37.53494299,강서세무서 청사,영등포구,02-2670-3503,공공개방,업무시간,공공청사,가능, , , , , 
672,서울특별시 영등포구 경인로72길 10-1,서울특별시 영등포구 문래동1가 110-8,126.8924679,37.50981232,남부교육지원청,영등포구,02-2670-3503,공공개방,업무시간,공공청사,가능,손건조기10, , , , 
673,서울특별시 영등포구 선유로23길 18,서울특별시 영등포구 양평동1가 205,126.8881976,37.5233229,양남공원하장실,영등포구,02-2670-3503,공중,종일개방,공원,가능,손건조기1, , , , 
674, ,서울특별시 영등포구 문래동3가  66,126.8942624,37.51749588,문래공원화장실,영등포구,02-2670-3503,공중,종일개방,공원,가능,손건조기2, , , , 
675,서울특별시 영등포구 영등포로84길 24-5,서울특별시 영등포구 신길동 465-1,126.9214222,37.51116768,신길1동 주민센터,영등포구,02-2670-1259,공공개방,업무시간,공공청사,가능,손건조기2, , , , 
676,서울특별시 영등포구 당산로 238,서울특별시 영등포구 당산동6가 298,126.9028355,37.53453502,국민건강보험공단영등포남부지사,영등포구,02-2670-3503,공공개방,업무시간,공공청사,가능,손건조기10, , , , 
677,서울특별시 영등포구 신길로41라길 13-8,서울특별시 영등포구 신길동 268-4,126.9077302,37.50729695,신길3동 주민센터,영등포구,02-2670-1456,공공개방,업무시간,공공청사,가능,손건조기2, , , , 
678,서울특별시 영등포구 대림로35가길 7,서울특별시 영등포구 대림동 740-9,126.8980166,37.49831316,대림제3동 주민센터,영등포구,02-2670-1444,공공개방,업무시간,공공청사,가능,손건조기4, , , , 
679,서울특별시 영등포구 여의대방로 372-1,서울특별시 영등포구 여의도동 56,126.9304617,37.51756564,자매공원화장실,영등포구,02-2670-3503,공중,종일개방,공원,가능,손건조기2, , , , 
680,서울특별시 영등포구 선유서로25길 9-2,서울특별시 영등포구 양평동2가 31-13,126.8848308,37.52441368,양평동2가-1,영등포구,02-2670-3054,공중,종일개방,화장실, , , , , , 
681,"서울특별시 영등포구 선유로33길 2-2, 101동 (양평동3가, 아테네)",서울특별시 영등포구 양평동3가 49-4,126.8906937,37.5267189,당중초교 뒤,영등포구,02-2670-3054,공중,종일개방,화장실, , , , , , 
682,서울특별시 영등포구 당산로 123,서울특별시 영등포구 당산동3가 385-1,126.8963513,37.52595961,영등포구청청사,영등포구,02-2670-3320,공공개방,업무시간,공공청사,가능,손건조기 40, , , , 
683,서울특별시 영등포구 도영로7길 10,서울특별시 영등포구 도림동 222-7,126.8959681,37.50948161,도림동 주민센타,영등포구,02-2670-3503,공공개방,업무시간,공공청사,가능,손건조기2, , , , 
684,서울특별시 영등포구 신길로 275,서울특별시 영등포구 영등포동 582-3,126.9122202,37.51576018,영등포공원화장실,영등포구,02-2670-3503,공중,종일개방,공원,가능,손건조기2, , , , 
685,서울특별시 영등포구 대림로 106,서울특별시 영등포구 대림동 870-4,126.9032217,37.49114642,대림공원화장실,영등포구,02-2670-3503,공중,종일개방,공원,가능,손건조기2, , , , 
686,서울특별시 영등포구 대림로23가길 5,서울특별시 영등포구 대림동 703-6,126.8992084,37.49283263,다사랑공원화장실,영등포구,02-2670-3503,공중,종일개방,공원, , , , , , 
687,서울특별시 영등포구 영등포로35길 13,서울특별시 영등포구 영등포동6가 65-1,126.9041586,37.52134261,중앙공원화장실,영등포구,02-2670-3503,공중,종일개방,공원, ,손건조기2, , , , 
688,서울특별시 영등포구 도림로80길 6,서울특별시 영등포구 신길동 341-3,126.9054054,37.50175763,신길공원,영등포구,02-2670-3503,공중,업무시간,공원,가능,손건조기2, , , , 
689, ,서울특별시 영등포구 양평동5가  128,126.8936165,37.54158051,양평동 참병원,영등포구,02-2670-3503,공중,업무시간,공원, , , , , , 
690, ,서울특별시 영등포구 문래동2가  63,126.8910682,37.51177105,도림천 화장실,영등포구,02-2670-3503,공중,종일개방,공원, ,손건조기2, , , , 
691,서울특별시 영등포구 영등포로2길 34,서울특별시 영등포구 문래동6가 52,126.8821517,37.52038478,억새2축구장,영등포구,02-2670-3503,공중,종일개방,공원, ,손건조기2, , , , 
692,서울특별시 영등포구 영등포로2길 62,서울특별시 영등포구 문래동5가 31,126.8805565,37.51840741,영롱이인라인,영등포구,02-2670-3503,공중,종일개방,공원, ,손건조기2, , , , 
693, ,서울특별시 영등포구 양화동  153-8,126.8814488,37.54870829,양화폭포화장실,영등포구,02-2670-3503,공중,종일개방,공원,가능,손건조기2, , , , 
694,서울특별시 영등포구 도림로47길 28,서울특별시 영등포구 대림동 690,126.8996371,37.49761798,원지공원화장실,영등포구,02-2670-3503,공중,종일개방,공원,가능,손건조기2, , , , 
695,서울특별시 영등포구 가마산로47길 13,서울특별시 영등포구 대림동 657,126.8990751,37.50357706,신우공원화장실,영등포구,02-2670-3503,공중,종일개방,공원,가능,손건조기2, , , , 
696,서울특별시 영등포구 당산로27길 12,서울특별시 영등포구 당산동3가 385,126.8951308,37.52521587,당산공원화장실,영등포구,02-2670-3503,공중,종일개방,공원,가능,손건조기2, , , , 
697,서울특별시 영등포구 양산로 1,서울특별시 영등포구 양평동 484,126.8854239,37.52806664,양평1보행육교,영등포구,02-2670-3503,공중,종일개방,공원, ,손건조기2, , , , 
698, ,서울특별시 영등포구 양화동  12-2,126.8860871,37.54376875,갈대2축구장,영등포구,02-2670-3503,공중,종일개방,공원, ,손건조기2, , , , 
699,서울특별시 영등포구 노들로 56,서울특별시 영등포구 양화동 1-22,126.8853921,37.5462239,성산대교 남단,영등포구,02-2670-3503,공중,종일개방,공원, ,손건조기2, , , , 
700,서울특별시 영등포구 양평로 174,서울특별시 영등포구 양평동 502-1,126.8885332,37.54104274,양평교 화장실,영등포구,02-2670-3503,공중,종일개방,공원, ,손건조기2, , , , 
701,서울특별시 영등포구 오목로 390,서울특별시 영등포구 양평동 492,126.8807309,37.52325241,오목교 화장실,영등포구,02-2670-3503,공중,종일개방,공원, ,손건조기2, , , , 
702,서울특별시 영등포구 대림로35길 7,서울특별시 영등포구 대림동 742,126.8973206,37.49875134,동심공원,영등포구,02-2670-3503,공중,업무시간,공원, ,손건조기1, , , , 
703,서울특별시 영등포구 도신로33길 4,서울특별시 영등포구 도림동 75,126.908018,37.50998327,도림동주민센타  분소 화장실,영등포구,02-2670-3503,공공개방,업무시간,공공청사, ,손건조기4, , , , 
704,서울특별시 영등포구 국제금융로 124,서울특별시 영등포구 여의도동 53-22,126.9345959,37.51769165,여의동 주민센터,영등포구,02-2670-3503,공공개방,업무시간,공공청사,가능,손건조기9, , , , 
705,서울특별시 영등포구 당산로46길 38,서울특별시 영등포구 당산동6가 10-13,126.9064331,37.5332111,강마을공원,영등포구,02-2670-3054,공중,종일개방,화장실,가능, , , , , 
706,서울특별시 영등포구 당산로37길 8-17,서울특별시 영등포구 당산동4가 74-3,126.8978396,37.52976088,당산4가,영등포구,02-2670-3054,공중,종일개방,화장실, , , , , , 
707,서울특별시 영등포구 노량진로 9,서울특별시 영등포구 신길동 4203,126.926208,37.51291258,대방역앞 공중화장실,영등포구,02-2670-3054,공중,종일개방,화장실,가능,손건조기1, , , , 
708,서울특별시 영등포구 도림로 433-5,서울특별시 영등포구 문래동2가 14-43,126.8944671,37.51390882,철공소공단 공중화장실,영등포구,02-2670-3054,공중,종일개방,화장실, , , , , , 
709,서울특별시 영등포구 문래로 41,서울특별시 영등포구 문래동6가 26,126.8866753,37.52056902,의성기계담장,영등포구,02-2670-3054,공중,종일개방,화장실, , , , , , 
710,서울특별시 영등포구 영등포로5길 22-3,서울특별시 영등포구 양평동2가 31-46,126.8846342,37.52413149,양평동2가-2,영등포구,02-2670-3054,공중,종일개방,화장실, , , , , , 
711,서울특별시 영등포구 영등포로5길 26-4,서울특별시 영등포구 양평동2가 31-17,126.8847147,37.52432638,양평동2가-3,영등포구,02-2670-3054,공중,종일개방,화장실, , , , , , 
712,서울특별시 영등포구 경인로93길 1-16,서울특별시 영등포구 문래동3가 4-18,126.9019114,37.5151353,철제상가,영등포구,02-2670-3054,공중,종일개방,화장실,가능, , , , , 
713,서울특별시 영등포구 영신로17길 13,서울특별시 영등포구 영등포동 618-50,126.9068903,37.51344708,광야교회 뒤,영등포구,02-2670-3054,공중,종일개방,화장실,가능, , , , , 
714,서울특별시 영등포구 영등포로62라길 2,서울특별시 영등포구 신길동 39-3,126.9155163,37.5162313,영등포여고 앞,영등포구,02-2670-3054,공중,종일개방,화장실,가능, , , , , 
715,서울특별시 영등포구 영신로 218-2,서울특별시 영등포구 영등포동8가 33-7,126.9034011,37.52676945,전화국 뒤-1,영등포구,02-2670-3054,공중,종일개방,화장실,가능, , , , , 
716,서울특별시 영등포구 영신로45길 3-3,서울특별시 영등포구 당산동1가 186-23,126.9010835,37.52251,조광시장,영등포구,02-2670-3054,공중,종일개방,화장실, , , , , , 
717,서울특별시 영등포구 경인로96길 10-1,서울특별시 영등포구 영등포동 411-10,126.9041684,37.51460756,쪽방촌,영등포구,02-2670-3054,공중,종일개방,화장실,가능, , , , , 
718,서울특별시 영등포구 문래로10길 20,서울특별시 영등포구 문래동6가 22-3,126.8866604,37.51849162,문래동,영등포구,02-2670-3054,공중,종일개방,화장실, , , , , , 
877,"서울특별시 구로구 구로동로 148, 기계실동 (구로동, 고려대부속구로병원)",서울특별시 구로구 구로동 80-28,126.8854343,37.49233771,고대구로병원,구로구,02-860-2905,민간개방,상시,병원,"남10,여10", , , , , 
878,서울특별시 구로구 오류로8길 57,서울특별시 구로구 오류동 137-8,126.8433711,37.49244048,대성빌딩,구로구, ,민간개방1,정시,빌딩, , , , , , 
879,서울특별시 금천구 금하로14길 20,서울특별시 금천구 시흥동 892-15,126.9042843,37.45263118,금빛공원화장실,금천구,02-2627-1477,공중,상시,공원, ,비상벨, , , , 
880, ,서울특별시 금천구 시흥동  산 73-5,126.9163109,37.44355236,시흥계곡화장실,금천구,02-2627-1477,공중,정시(07:00~19:00),공원, ,기저귀교환대, , , , 
881,서울특별시 금천구 가산로 78,서울특별시 금천구 독산동 148-17,126.8955585,37.4733452,삼일빌딩,금천구,02-2627-1477,민간개방1,정시,빌딩, , , , , , 
882,서울특별시 관악구 신림로29길 6,서울특별시 관악구 신림동 1694-7,126.9349586,37.47499978,서림동주민센터,관악구,02-879-4743,공공개방,"정시(09:00~18:00 토,일,공휴일 제외)",공공청사,"남1, 여1",기저귀교환대, , , , 
883,서울특별시 관악구 신림로 282,서울특별시 관악구 신림동 90-121,126.9312687,37.47980368,서원동주민센터,관악구,02-879-4683,공공개방,"정시(09:00~18:00 토,일,공휴일 제외)",공공청사,공용2,"기저귀교환대, 손건조기", , , , 
884,서울특별시 관악구 남부순환로 1517-1,서울특별시 관악구 신림동 507-40,126.9192776,37.48294471,신사동주민센터,관악구,02-879-4533,공공개방,"정시(09:00~18:00 토,일,공휴일 제외)",공공청사,여1, , , , , 
885,서울특별시 관악구 남부순환로246가길 20,서울특별시 관악구 봉천동 1635-40,126.9652961,37.47511547,인헌동주민센터,관악구,02-879-4443,공공개방,"정시(09:00~18:00 토,일,공휴일 제외)",공공청사,남2,"기저귀교환대, 손건조기", , , , 
886,서울특별시 관악구 남부순환로 1861,서울특별시 관악구 봉천동 1673-21,126.9569023,37.48000277,덕수빌딩,관악구,02-885-5091,민간개방1,정시(07:00~22:00),빌딩, , , , , , 
887,서울특별시 관악구 남부순환로 1836,서울특별시 관악구 봉천동 853-1,126.953719,37.48048181,남경도빌딩,관악구,02-883-6066,민간개방1,정시(05:00~22:00),빌딩, , , , , , 
888,서울특별시 관악구 관악로40길 39,서울특별시 관악구 봉천동 1000,126.9585786,37.4917961,청림동주민센터,관악구,02-879-4323,공공개방,"정시(09:00~18:00 토,일,공휴일 제외)",공공청사,"남1,여1","기저귀교환대, 손건조기", , , , 
889,서울특별시 관악구 남현1가길 29,서울특별시 관악구 남현동 1086-1,126.9778928,37.47457463,남현동주민센터,관악구,02-879-4473,공공개방,"정시(09:00~18:00 토,일,공휴일 제외)",공공청사,"남1,여1",기저귀교환대, , , , 
890,서울특별시 관악구 난곡로 67,서울특별시 관악구 신림동 1735-5,126.918722,37.46152659,난향동주민센터,관악구,02-879-4653,공공개방,"정시(09:00~18:00 토,일,공휴일 제외)",공공청사,"남1,여1","기저귀교환대, 손건조기", , , , 
891,서울특별시 관악구 남부순환로 1722,서울특별시 관악구 봉천동 930-42,126.9412383,37.48223114,공인중개사협회,관악구,02-879-1100,민간개방1,정시(09:00~22:00),빌딩, , , , , , 
892,서울특별시 관악구 남부순환로 1793,서울특별시 관악구 봉천동 874-9,126.9493358,37.48193915,백광빌딩,관악구,02-873-2696,민간개방1,정시(06:00~23:00),빌딩,공용1, , , , , 
893,서울특별시 관악구 남부순환로 2040,서울특별시 관악구 남현동 1056-17,126.9755801,37.47618286,한국전력기술인협회,관악구,02-2182-0789,민간개방1,정시(08:00~18:00),빌딩, ,손건조기, , , , 
894,서울특별시 관악구 구암길 38,서울특별시 관악구 봉천동 1712-9,126.9482179,37.4895481,성현동주민센터,관악구,02-879-4263,공공개방,"정시(09:00~18:00 토,일,공휴일 제외)",공공청사,"남1,공용1","기저귀교환대, 손건조기", , , , 
895,서울특별시 관악구 행운1길 43,서울특별시 관악구 봉천동 1670-7,126.9570428,37.48065157,행운동주민센터,관악구,02-879-4353,공공개방,"정시(09:00~18:00 토,일,공휴일 제외)",공공청사,"남1,여1","기저귀교환대, 손건조기", , , , 
896,서울특별시 관악구 봉천로 421,서울특별시 관악구 봉천동 892-23,126.9470132,37.4830304,중앙동주민센터,관악구,02-879-4293,공공개방,"정시(09:00~18:00 토,일,공휴일 제외)",공공청사, , , , , , 
897,서울특별시 관악구 쑥고개로 44,서울특별시 관악구 봉천동 1539-1,126.9416491,37.47911413,청룡동주민센터,관악구,02-879-4383,공공개방,"정시(09:00~18:00 토,일,공휴일 제외)",공공청사,공용1,"기저귀교환대, 손건조기", , , , 
898,서울특별시 관악구 낙성대로4가길 5,서울특별시 관악구 봉천동 1624-24,126.9583735,37.47633385,낙성대동주민센터,관악구,02-879-4413,공공개방,"정시(09:00~18:00 토,일,공휴일 제외)",공공청사,"남1,여1","기저귀교환대, 손건조기", , , , 
899,서울특별시 관악구 난곡로30길 40,서울특별시 관악구 신림동 633-56,126.9216721,37.47093097,난곡동주민센터,관악구,02-879-4623,공공개방,"정시(09:00~18:00 토,일,공휴일 제외)",공공청사,"남1, 여1",기저귀교환대, , , , 
900,서울특별시 관악구 남부순환로 2056,서울특별시 관악구 남현동 1057-22,126.9772082,37.47630911,태림빌딩,관악구,02-523-2086,민간개방1,정시(08:00~22:00),빌딩, , , , , , 
901,서울특별시 관악구 남부순환로 1922,서울특별시 관악구 봉천동 1659-2,126.9626825,37.47707932,청동빌딩,관악구,02-876-6336,민간개방1,정시(07:00~21:00),빌딩, , , , , , 
902,서울특별시 관악구 남부순환로 1889,서울특별시 관악구 봉천동 1679-9,126.9596188,37.47901178,약사신용조합,관악구,02-874-8288,민간개방1,정시(08:00~17:00),빌딩,"남1, 여1",기저귀교환대, , , , 
903,서울특별시 관악구 남부순환로 1730,서울특별시 관악구 봉천동 927-5,126.9422684,37.48203658,청운빌딩,관악구,02-878-4979,민간개방1,상시,빌딩, , , , , , 
904,서울특별시 관악구 남부순환로 1802,서울특별시 관악구 봉천동 875-16,126.950314,37.48127664,관악캠퍼스타워,관악구,02-882-5789,민간개방1,상시,빌딩,"남1, 여1", , , , , 
905,서울특별시 관악구 신림로 185,서울특별시 관악구 신림동 1744,126.9353388,37.47478794,서울주유소,관악구,02-888-5189,공중,정시(07:00~24:00),주유소및충전소, , , , , , 
906,"서울특별시 관악구 관악로 304, 110동 (봉천동, 현대아파트)",서울특별시 관악구 봉천동 1000,126.9584552,37.49226377,관악현대종합상가,관악구,02-882-0924,민간개방,정시(09:00~22:00),상가(시장), ,손건조기, , , , 
907,서울특별시 관악구 신림로29길 8,서울특별시 관악구 신림동 1694,126.9324627,37.47510265,신림현대상가,관악구,02-875-4271,민간개방,정시(08:00~22:00),상가(시장), ,손건조기, , , , 
908,서울특별시 관악구 양녕로 49,서울특별시 관악구 봉천동 502-4,126.9465654,37.48662959,봉천현대시장,관악구,02-877-1218,민간개방1,상시,상가(전통시장), , , , , , 
909,서울특별시 관악구 남부순환로 1686,서울특별시 관악구 신림동 10-634,126.9376056,37.4838459,S＆G빌딩,관악구,02-889-3901,민간개방1,상시,빌딩,"남1, 여1",기저귀교환대, , , , 
910,서울특별시 관악구 남부순환로 1761,서울특별시 관악구 봉천동 912-27,126.9460791,37.48226955,서원빌딩,관악구,02-876-8211,민간개방1,정시(06:00~24:00),빌딩,"남1,여1","기저귀교환대, 손건조기", , , , 
911,서울특별시 관악구 신림로 206,서울특별시 관악구 신림동 96-125,126.9374556,37.475637,태영빌딩,관악구,02-872-5100,민간개방1,상시,빌딩, , , , , , 
912,서울특별시 관악구 원신2길 34,서울특별시 관악구 신림동 391-44,126.9322196,37.47087826,신신림시장,관악구,02-874-4322,민간개방1,정시(09:00~22:00),상가(전통시장), , , , , , 
913,서울특별시 강남구 광평로10길 28,서울특별시 강남구 일원동 732-4,127.0807438,37.4807158,일원장미공원,강남구,02-3423-5963,공중,상시,공원,"남1,여1", , , , , 
914,서울특별시 강남구 논현로22길 78,서울특별시 강남구 개포동 1267-1,127.0494943,37.48247055,출발마당,강남구,02-3423-5963,공중,상시,공원,여1, , , , , 
759,"서울특별시 영등포구 당산로 83, 101동 (당산동2가, 한화포레나당산)",서울특별시 영등포구 당산동2가 165,126.8953349,37.52228896,시티21빌딩,영등포구,02-2633-7287,민간개방1,업무시간,빌딩, , , , , , 
760,서울특별시 동작구 노량진로 158,서울특별시 동작구 노량진동 100-1,126.9434907,37.5133734,맥도날드㈜,동작구,02-820-9142,민간개방,정시(07:00~22:00),상가(시장), ,손건조기2, , , , 
761,서울특별시 동작구 장승배기로 113,서울특별시 동작구 노량진동 312-6,126.9395567,37.50782983,장성빌딩,동작구,02-820-9142,민간개방1,정시(07:00~22:00),빌딩,남2,손건조기2, , , , 
762,서울특별시 동작구 장승배기로 108,서울특별시 동작구 노량진동 311-8,126.9401551,37.50714324,청화병원,동작구,02-820-9142,민간개방,정시(07:00~22:00),병원,여1,"유야용보호의자1,손건조기2", , , , 
